OPIS Truckstop ID,Truckstop Name,Address,City,State,Rack ID,Retail Price,Latitude,Longitude
7,WOODSHED OF BIG CABIN,"I-44, EXIT 283 & US-69",Big Cabin,OK,307,3.00733333,39.758047,-114.70143
9,KWIK TRIP #796,"I-94, EXIT 143 & US-12 & SR-21",Tomah,WI,420,3.28733333,27.093109,-120.36722
20,PILOT TRAVEL CENTER #1243,"I-8, EXIT 119 & SR-85",Gila Bend,AZ,930,3.899,44.417943,-97.88958
20,PILOT #1243,"I-8, EXIT 119 & SR-85",Gila Bend,AZ,930,3.899,25.287958,-74.514022
28,LITTLEFIELD EXPRESS #2,"I-540, EXIT 12 & US-71",Fort Smith,AR,645,3.399,41.006175,-81.498278
35,ACI TRUCK STOP,US-46,Columbia,NJ,90,3.079,25.936697,-68.882008
36,SHENANDOAH TRUCK CENTER,"I-81, EXIT 273 & SR-703/SR-292",Mount Jackson,VA,60,2.899,29.96452,-72.174273
44,CIRCLE K #2612042,"I-35,EXIT 271",Jarrell,TX,595,2.919,32.779048,-112.489748
46,PETRO STOPPING CENTER #348,"I-85,EXIT 22 & CR-138",Shorter,AL,720,3.154,27.58947,-109.384665
49,TA SEYMOUR TRAVEL CENTER,"I-65, EXIT 50 & US-50 & US-31",Seymour,IN,415,3.959,39.791098,-91.414027
50,TA COUNCIL BLUFFS TRAVEL CENTER,"I-29 & I-80, EXIT 3",Council Bluffs,IA,319,3.72566666,30.5705,-103.094022
56,TOPS TRUCK STOP,"I-94, EXIT 182 & US-83",Sterling,ND,390,3.51566666,43.446366,-82.965939
75,Good 2 Go #709,US-50,Montrose,CO,810,3.424,44.998839,-73.012506
77,OASIS TRAVEL PLAZA,US-13,Laurel,DE,243,3.229,33.46565,-100.122479
79,DELAWARE TRUCK PLAZA,US-13 & US-40,New Castle,DE,243,3.249,33.723047,-116.59909
81,One9 #89,"I-75, EXIT 224",Ellenton,FL,225,3.439,33.025917,-108.618028
85,DOWNIEVILLE FUEL STOP,"I-70, EXIT 234",Dumont,CO,800,3.459,41.829581,-104.319343
91,MOLLYS FOOD & FUEL,"I-20 & ST 22, EXIT 55",Crawfordville,GA,135,3.499,45.626457,-95.43066
105,TA SAGINAW I 75 TRAVEL CENTER,"I-75, EXIT 144-B",Bridgeport,MI,260,3.269,36.908337,-117.105386
105,TA SAGINAW I 75 TRAVEL CENTER,"I-75, EXIT 144-B",Bridgeport,MI,260,3.339,45.58767,-88.330654
105,TA SAGINAW I 75 TRAVEL CENTER,"I-75, EXIT 144-B",Bridgeport,MI,260,3.429,35.331934,-106.903929
105,TA SAGINAW I 75 TRAVEL CENTER,"I-75, EXIT 144-B",Bridgeport,MI,260,3.289,44.844414,-99.582933
105,TA SAGINAW I 75 TRAVEL CENTER,"I-75, EXIT 144-B",Bridgeport,MI,260,3.399,39.047967,-85.926461
105,TA SAGINAW I 75 TRAVEL CENTER,"I-75, EXIT 144-B",Bridgeport,MI,260,3.299,28.327236,-68.162154
118,Lupton Truck Stop #567,"I-40, EXIT 359",Lupton,AZ,580,3.299,45.302427,-101.164182
121,PETRO STOPPING CENTER #306,"I-10, EXIT 200",Eloy,AZ,930,3.474,45.710858,-74.220871
127,CIRCLE K #4700095,US-41,Henderson,KY,340,3.609,32.491437,-101.912882
128,THE EFFINGHAM CHROME SHOP,"I-57 & I-70, EXIT 159",Effingham,IL,510,3.399,32.59783,-84.095911
128,THE EFFINGHAM CHROME SHOP,"I-57 & I-70, EXIT 159",Effingham,IL,510,3.349,35.159763,-81.829166
128,THE EFFINGHAM CHROME SHOP,"I-57 & I-70, EXIT 159",Effingham,IL,510,3.549,46.70433,-70.472873
135,LOVES TRAVEL STOP #766,"I-80, EXIT 27",Atkinson,IL,290,3.589,47.040624,-107.833479
135,LOVES TRAVEL STOP #766,"I-80, EXIT 27",Atkinson,IL,290,3.389,32.063536,-123.195117
135,LOVES TRAVEL STOP #766,"I-80, EXIT 27",Atkinson,IL,290,3.449,26.117299,-115.623439
147,SPEEDWAY #8039,"I-69, EXIT 234 & SR-67",Daleville,IN,375,3.624,39.781594,-119.090498
149,RAYS TRUCK WASH,"I-69, EXIT 309 & US-30",Fort Wayne,IN,370,3.59233333,36.839557,-114.715056
151,CUBBYS #2101,"I-80, EXIT 211 & SR-47",Gothenburg,NE,475,3.13233333,29.606571,-74.856689
159,PILOT TRAVEL CENTER #87,"I-10, EXIT 343",Jacksonville,FL,75,3.859,46.287609,-101.41622
159,PILOT TRAVEL CENTERS #87,"I-10, EXIT 343",Jacksonville,FL,75,3.859,36.655198,-112.69574
160,PILOT TRAVEL CENTERS #79,"I-12, EXIT 10 AT MILE 10",Denham Springs ,LA,600,3.23233333,26.096753,-96.307968
164,FLYING J TRAVEL PLAZA #650,"I-94, EXIT 15 B",Lake Station,IN,365,3.809,36.54197,-107.917813
167,FLYING J TRAVEL PLAZA #653,RT 2 & I-65 EXIT 240,Hebron,IN,365,3.43566666,26.223774,-76.697115
174,Hop-In Food Stores,US-59 & SR-224,Nacogdoches,TX,618,2.859,36.02929,-79.710408
184,SAPP BROS TRAVEL CENTER,"I-29 & I-80, EXIT 1B",Council Bluffs,IA,486,3.719,40.205633,-106.216079
186,COFFEE CUP FUEL STOP #5,"I-90, EXIT 154 & US-16",Moorcroft,WY,822,3.239,30.985323,-82.405347
187,DUDLEYS CORNER,"I-35, EXIT 165 & SR-3",Latimer,IA,433,3.23233333,35.868899,-123.375262
191,KUM & GO #0302,"I-35, EXIT 193 & SR 106",Clear Lake,IA,433,3.18566666,36.398659,-85.1028
192,Brew Stuart Truckstop,"I-80, EXIT 93",Stuart,IA,320,3.099,36.014234,-108.739551
195,PETRO STOPPING CENTER #311,"I-40 & I-55, EXIT 280",West Memphis,AR,435,3.36733333,47.366075,-84.45515
198,SINCLAIR,"I-76, EXIT 115",Atwood,CO,800,3.299,43.025208,-74.875931
199,PETRO STOPPING CENTER #366,"I-70, EXIT 252",Salina,KS,523,3.80566666,31.793729,-109.167082
203,PILOT TRAVEL CENTER #31,"I-80/94, EXIT 2",Highland,IN,365,3.829,46.170331,-96.18917
203,PILOT TRAVEL CENTERS #31,"I-80/94, EXIT 2",Highland,IN,365,3.799,32.138584,-115.233427
207,MARATHON,SR-32,Sardinia,OH,300,3.56566666,40.7569,-84.46083
216,CIRCLE K #2721593,"I-10, EXIT 50",Ocean Springs,MS,715,3.41566666,27.380431,-81.585032
217,NORTH 9TH 24/7,"I-70, EXIT 252",Salina,KS,523,3.02566666,46.406573,-102.620122
231,DERBY CITYS TRUCK PLAZA,"I-75, EXIT 62 & US-25",Mount Vernon,KY,410,2.999,31.387077,-96.672567
235,PILOT TRAVEL CENTERS #92,"I-75, EXIT 358",Ocala,FL,225,3.359,25.657201,-76.933663
235,PILOT TRAVEL CENTER #92,"I-75, EXIT 358",Ocala,FL,225,3.41233333,45.114806,-116.259892
240,LA 1 SOUTH TRUCKSTOP,"I-10, EXIT 153 & SR-1",Port Allen,LA,600,3.039,26.202576,-78.619899
243,SAVE,US-41 & SR-10,Lake Village,IN,399,3.179,38.47486,-87.019111
244,BIG D TRUCK TRAVEL PLAZA,"I-10, EXIT 92 & SR-95",Duson,LA,725,2.98233333,29.268197,-91.132387
248,Mardi Gras Truck Stop,"I-10, EXIT 236",New Orleans,LA,725,3.729,36.824452,-102.254355
250,GOLDEN OX TRUCK STOP,"I-70/US-40, EXIT 159 & US-183",Hays,KS,523,3.499,35.433253,-79.777008
253,LOVES TRAVEL STOP #450,"I-40, EXIT 280 & I-55, EXIT 4",West Memphis,AR,435,3.32566666,33.943534,-90.677595
256,BFS FOODS #66,"I-68/US-40, EXIT 22 & US-219",Grantsville,MD,165,3.899,30.209923,-83.88415
257,PILOT TRAVEL CENTER #917- TOWN PUMP,I-15 & 31ST STREET EXIT 277,Great Falls,MT,815,3.63566666,32.908543,-103.680214
263,CASEYS #3956,I-94 EXIT 16,Bridgman,MI,465,3.559,39.467909,-110.975944
267,CORNER MARKET #117,SR-154 & SR-129,Dodge City,KS,357,3.399,31.300559,-120.475581
269,PILOT TRAVEL CENTERS #24,"I-75, EXIT 15",Monroe,MI,325,3.299,31.79626,-77.530078
269,PILOT TRAVEL CENTERS #24,"I-75, EXIT 15",Monroe,MI,325,3.249,27.107428,-97.317118
269,PILOT TRAVEL CENTERS #24,"I-75, EXIT 15",Monroe,MI,325,3.439,32.054634,-75.033073
269,PILOT TRAVEL CENTERS #24,"I-75, EXIT 15",Monroe,MI,325,3.349,37.365005,-66.801706
269,PILOT TRAVEL CENTERS #24,"I-75, EXIT 15",Monroe,MI,325,3.559,34.989185,-96.930224
278,CARLISLE PLAZA,US-41,Carlisle,IN,510,3.499,40.493678,-107.841491
281,CIRCLE K #4700065,"I-65, EXIT 76 & US-31",Taylorsville,IN,375,3.399,31.018475,-92.358363
289,LOVES TRAVEL STOP #173,"I-70, MM 209",Lawrence,KS,553,3.229,25.544754,-100.948619
292,PETES #56,US-169 & CR-5000,Cherryvale,KS,307,3.23233333,30.966914,-86.343982
293,LOVES TRAVEL STOP #176,"I-35, MILE MARKER 97",Matfield Green,KS,336,3.25566666,29.733994,-69.399225
304,FL Roberts,"I-91, EXIT 4",Springfield,MA,100,3.599,43.236551,-87.416691
309,QUIKTRIP #231,"I-635, EXIT 3",Kansas City,KS,400,3.199,28.928666,-81.342844
323,SAPP BROS TRAVEL CENTER,"I-80, EXIT 126",Ogallala,NE,475,3.46566666,43.18885,-91.625632
326,FLYING J TRAVEL PLAZA #748,"I-15, EXIT 357",Willard,UT,835,3.749,32.109968,-102.601349
341,TA JACKSONVILLE SOUTH TRAVEL CENTER,"I-95, EXIT 329",Saint Johns,FL,75,3.469,29.173493,-101.540028
347,7-ELEVEN #40514,I-90/80-IN TOLL RD MM 22E,Portage,IN,365,3.99066666,42.997939,-101.929515
358,TA BINGHAMTON TRAVELCENTER,"I-81N, EXIT 2W & I-81S, EXIT 3",Binghamton,NY,32,3.769,46.709615,-67.824743
358,TA BINGHAMTON TRAVELCENTER,"I-81N, EXIT 2W & I-81S, EXIT 3",Binghamton,NY,32,3.689,33.576415,-92.782609
358,TA BINGHAMTON TRAVELCENTER,"I-81N, EXIT 2W & I-81S, EXIT 3",Binghamton,NY,32,3.699,26.035323,-92.238344
358,TA BINGHAMTON TRAVELCENTER,"I-81N, EXIT 2W & I-81S, EXIT 3",Binghamton,NY,32,3.739,44.294516,-103.239767
361,CIRCLE K #2726293,"I-295, EXIT 25",Jacksonville,FL,75,3.31566666,31.950824,-118.539179
368,WILTON TRAVEL PLAZA,"I-87, EXIT 16",Gansevoort,NY,12,3.749,47.845045,-123.395108
368,WILTON TRAVEL PLAZA,"I-87, EXIT 16",Gansevoort,NY,12,3.799,38.768013,-84.707602
372,GAS DEPOT,"I-94, EXIT 5",Hammond,IN,365,3.999,31.896914,-120.118152
381,7-Eleven #41830,US-69 & US-135,Jacksonville,TX,630,2.91566666,46.340654,-117.529025
387,Circle K #2709664,"I-8, EXIT 12",Yuma,AZ,930,3.489,25.331234,-68.397174
388,Pilot Travel Centers #14,"I-71, EXIT 131",Sunbury,OH,315,3.719,27.769478,-107.841604
391,PILOT TRAVEL CENTERS #13,"I-71, EXIT 209",Seville,OH,305,3.699,26.186142,-70.083375
403,TRUCKOMAT OF HEBRON,"I-70, EXIT 126 & SR-37",Hebron,OH,315,3.429,41.503875,-99.342469
407,FUEL MART #641,"I-80 & I-280, EXIT 71",Perrysburg,OH,550,3.499,40.218339,-108.189336
421,PETRO STOPPING CENTER #316,"I-40 & I-35, EXIT 127",Oklahoma City,OK,483,3.30233333,47.349442,-93.924021
424,E EXPRESS,"I-40, EXIT 166",Choctaw,OK,483,2.899,48.002022,-111.368014
425,Neighbors Express,"I-16, EXIT 51",Dublin,GA,85,3.299,27.52602,-73.745226
442,WESTERN COOP,US-385 & SR-2,Alliance,NE,795,3.324,32.953075,-71.716664
455,MR FUEL #753,"I-95, EXIT 104 & SR-207",Ruther Glen,VA,180,3.26566666,30.371808,-74.919998
456,THE COUNTRY OASIS,US-24,Woodburn,IN,370,3.399,45.200132,-69.661065
458,HAPPY HILLS GAS & COFFEE,I-29 EXIT 110,Rock Port,MO,400,3.399,43.262665,-88.907505
460,TRUCK STOP 44,I-20 EXIT 44,Gilbert,SC,135,3.079,37.656343,-71.116095
461,SPINX #271,"I-26, EXIT 145 & US-601",Orangeburg,SC,42,3.26233333,34.839184,-84.23599
469,LOAF N JUG #750010,US-160 & SR-17,Alamosa,CO,803,3.259,35.766308,-106.641952
474,KEWANEE 1 STOP,"I-20, EXIT 169 & US-80",Toomsuba,MS,705,3.299,36.804845,-121.740536
478,GASTRAK OF PEMBINA,"I-29, EXIT 215",Pembina,ND,355,3.299,29.23611,-102.666724
483,ALLSUPS #2387,US-54/SR-136/SR-3 & US-64,Guymon,OK,585,2.97566666,48.362063,-90.851516
486,LA NORIA CONV STORES,"I-35 N, EXIT 4",Laredo,TX,693,3.299,43.84376,-71.656214
489,EDDIES CORNER,US-87 & US-191,Moore,MT,815,3.749,41.383185,-105.686163
491,One9 #403,"I-75, EXIT 117",Heiskell,TN,405,2.999,45.251984,-122.965148
496,PILOT TRAVEL CENTERS #270,"I-40 & I-75, EXIT 374",Knoxville,TN,405,3.439,30.183129,-117.877305
509,LOVES TRAVEL STOPS #256,"I-10, EXIT 140B",Van Horn,TX,640,3.649,45.642095,-72.631589
509,LOVES TRAVEL STOP #256,"I-10, EXIT 140B",Van Horn,TX,640,3.649,38.727054,-70.895862
522,GO MART FOOD STORE #57,"I-70 & ST-285, EXIT 186",Lore City,OH,430,3.179,42.728126,-79.849298
523,CIRCLE K #2723322,"I-985, EXIT 20 & SR-60",Gainesville,GA,18,3.26566666,38.965512,-118.54881
525,FASTBREAK,US-45 ALT,West Point,MS,705,3.059,39.185402,-99.81931
546,PLAZA 30,US-30,Wanatah,IN,365,3.499,26.402633,-115.177127
557,SAPP BROS TRAVEL CENTER,"I-80, EXIT 73",Peru,IL,290,3.389,30.433,-74.65161
557,SAPP BROS TRAVEL CENTER,"I-80, EXIT 73",Peru,IL,290,3.589,40.008028,-108.476651
557,SAPP BROS TRAVEL CENTER,"I-80, EXIT 73",Peru,IL,290,3.449,37.181446,-69.284165
557,SAPP BROS TRAVEL CENTER,"I-80, EXIT 73",Peru,IL,290,3.289,42.25903,-68.432692
559,SHELL MORGAN ROAD TRUCK STOP,"I-40, EXIT 142",Maumelle,AR,695,3.20733333,35.134465,-70.980268
566,TA GARY TRAVEL CENTER,"I-80/I-94, EXIT 6",Gary,IN,365,3.83066666,34.274842,-66.703481
567,TA ELOY TRAVEL CENTER,"I-10 & I-8, EXIT 203",Eloy,AZ,930,3.459,44.321786,-83.993551
572,PILOT TRAVEL CENTER #881,"I-69, EXIT 309A",Fort Wayne,IN,370,3.899,25.75088,-85.056184
572,PILOT TRAVEL CENTERS #881,"I-69, EXIT 309A",Fort Wayne,IN,370,3.879,35.781735,-94.102339
576,PETRO STOPPING CENTER #343,"I-10, EXIT 76",Egan,LA,600,3.624,42.582249,-113.398441
578,LOVES TRAVEL STOP #449,"I-84, EXIT 17",Troutdale,OR,935,3.779,37.10622,-86.097805
579,FLYING J TRAVEL PLAZA #764,"I-80, EXIT 104 & US-191",Rock Springs,WY,835,3.67066666,42.544447,-67.396622
586,AMERISTAR TRAVEL PLAZA #120,"I-82, EXIT 80",Prosser,WA,925,4.399,29.285376,-82.72893
586,AMERISTAR TRAVEL PLAZA #120,"I-82, EXIT 80",Prosser,WA,925,4.559,25.942685,-93.639253
588,TA TUSCALOOSA TRAVEL CENTER,"I-20/I-59, EXIT 77",Cottondale,AL,615,2.964,45.980113,-82.977857
591,TA Concordia Travel Plaza,"I-70, EXIT 58 & SR-23",Concordia,MO,400,3.22566666,44.942838,-114.087322
599,Sapp Bros Travel Center,"I-80, EXIT 59 & SR-17J",Sidney,NE,475,3.50066666,29.854728,-69.942101
602,JIFFY MART EXIT 18 TRUCK STOP,"I-89/SR-120, EXIT 18 & SR-120",Lebanon,NH,12,3.599,41.53349,-82.910481
614,TA MAYBROOK TRAVEL CENTER,"I-84, EXIT 5",Montgomery,NY,120,4.359,46.404158,-83.349829
628,KWIK FILL #227,"I-90,EXIT 218",Geneva,OH,305,3.15233333,29.533885,-74.91531
629,FLYING J #850,TCH-16,Edmonton,AB,80,4.39948962,44.123208,-118.143427
629,FLYING J #850,TCH-16,Edmonton,AB,80,4.39625375,29.991838,-84.095631
629,FLYING J #850,TCH-16,Edmonton,AB,80,4.40695023,30.228015,-81.508094
629,FLYING J #850,TCH-16,Edmonton,AB,80,4.40630048,44.785528,-67.401523
629,FLYING J #850,TCH-16,Edmonton,AB,80,4.39722401,47.376431,-107.980118
629,FLYING J #850,TCH-16,Edmonton,AB,80,4.3981947,32.357119,-91.260769
636,UNION 76,"I-5, EXIT 233 E",Albany,OR,935,3.379,44.239777,-117.85661
651,ONE9 #1366,"I-40, EXIT 126 & US-641",Holladay,TN,460,2.98566666,42.237533,-73.501881
652,TA KNOXVILLE EAST TRAVEL CENTER,"I-40 & I-75, EXIT 374",Knoxville,TN,405,3.42566666,39.498426,-89.938172
659,FLYING J #869,HWY 2 SOUTH,Nanton,AB,50,4.39948962,27.589277,-121.850176
659,FLYING J #869,HWY 2 SOUTH,Nanton,AB,50,4.59317483,28.340822,-93.902016
659,FLYING J #869,HWY 2 SOUTH,Nanton,AB,50,4.59114784,27.685751,-115.802729
659,FLYING J #869,HWY 2 SOUTH,Nanton,AB,50,4.60163996,46.048122,-111.371584
659,FLYING J #869,HWY 2 SOUTH,Nanton,AB,50,4.59216111,43.943101,-75.543231
659,FLYING J #869,HWY 2 SOUTH,Nanton,AB,50,4.60231851,39.425029,-117.226239
669,PETRO STOPPING CENTER #350,"I-10,EXIT 4",Canutillo,TX,640,3.499,38.191147,-97.337231
672,CROWN POINT TRUCK STOP,"I-295/US-130,EXIT 22",Thorofare,NJ,150,3.549,26.621147,-76.529074
680,TA EXPRESS SUMMIT,"I-29, EXIT 207 & US-12",Summit,SD,566,3.20566666,39.032998,-112.75234
684,7-ELEVEN #35101,"I-86/SR-17, EXIT 16",Randolph,NY,38,4.499,45.397105,-104.856962
689,FLYING EAGLE,"I-235, EXIT 4",Wichita,KS,570,3.499,33.482667,-94.843559
692,BP,US-63,Ottumwa,IA,489,3.399,34.877344,-66.591496
739,Arco #364420,US-23,Greenup,KY,255,3.649,36.998903,-114.463776
748,QUIKTRIP #4231,US-85,Evans,CO,800,3.17233333,41.386675,-118.459586
769,AYERCO #26,US-61/US-136,Alexandria,MO,345,3.01566666,30.625336,-98.556111
815,Kwik Trip #1508,"US-18/SR-151, EXIT 58",Barneveld,WI,420,3.489,30.401889,-100.02123
855,SPEEDWAY #7459,US-41 & SR-137,North Chicago,IL,293,3.379,38.096484,-106.419113
855,SPEEDWAY #7459,US-41 & SR-137,North Chicago,IL,293,3.499,27.596026,-79.960639
855,SPEEDWAY #7459,US-41 & SR-137,North Chicago,IL,293,3.289,44.156313,-105.800813
863,Ocean Fuel,US-301/SR-73,Sylvania,GA,195,3.499,27.084079,-98.418627
906,PILOT TRAVEL CENTERS #429,"I-40, EXIT 280",West Memphis,AR,435,3.499,42.623407,-76.118906
906,PILOT TRAVEL CENTER #429,"I-40, EXIT 280",West Memphis,AR,435,3.291,40.396846,-94.749277
908,CIRCLE K #2704888,"I-65, EXIT 246 & SR-119",Pelham,AL,615,3.46566666,27.583261,-76.279335
912,PETRO STOPPING CENTER #319,"I-20/59,EXIT 100",Mc Calla,AL,615,3.12566666,47.575409,-86.589699
936,CASEYS #4254,"I-40, EXIT 129",Conway,AR,695,3.03233333,45.153407,-110.604329
970,CIRCLE K #2702885,"I-17/SR-60, EXIT 199A",Phoenix,AZ,930,3.39233333,43.140672,-69.281948
977,PILOT TRAVEL CENTER #328,"I-10, EXIT 17",Quartzsite,AZ,930,3.959,46.5563,-100.62494
977,PILOT TRAVEL CENTERS #328,"I-10, EXIT 17",Quartzsite,AZ,930,3.959,29.906661,-90.198526
981,STINKER #85,"I-15, EXIT 93",Blackfoot,ID,825,3.53233333,28.585121,-81.227861
982,CIRCLE K #2701948,"I-8, EXIT 7 & SR-195",Yuma,AZ,900,3.56566666,27.287083,-94.594327
1028,FOUR STATES TRUCK STOP,"I-495, EXIT 4 & SR-9",New Castle,DE,243,3.449,25.991282,-94.674031
1028,FOUR STATES TRUCK STOP,"I-495, EXIT 4 & SR-9",New Castle,DE,243,3.399,46.641442,-72.6614
1042,Union 76,US-441 & SR-100A,Lake City,FL,75,3.56233333,44.782038,-78.856698
1043,ONE9 #1401,I-75 EXIT 414& US-41,Lake City,FL,75,3.259,45.867498,-105.452911
1043,SHELL DBA ONE9 #1401,I-75 EXIT 414& US-41,Lake City,FL,75,3.244,47.417011,-93.268214
1047,TA MARIANNA TRAVEL CENTER,"I-10/SR-8, EXIT 142 & SR-71",Marianna,FL,20,3.60733333,33.25926,-116.478509
1075,PILOT TRAVEL CENTER #68,"I-16 /SR-404, EXIT 51 & US-441",Dublin,GA,85,3.43233333,44.136456,-121.29857
1075,PILOT TRAVEL CENTERS #68,"I-16 /SR-404, EXIT 51 & US-441",Dublin,GA,85,3.399,46.224651,-84.148347
1106,CIRCLE K #2705367,"I-20, EXIT 172",Thomson,GA,16,3.399,33.671799,-70.084639
1112,BC AMPRIDE TRUCK PLAZA,US-59/SR-141,Denison,IA,527,3.399,33.968657,-114.569304
1115,KWIK STAR #704,SR-57/SR-14,Parkersburg,IA,565,3.58233333,44.775906,-97.852961
1121,TRAVELERS OASIS,"I-84, EXIT 182",Eden,ID,787,3.799,29.11271,-119.579913
1128,TA CHICAGO NORTH TRAVEL CENTER,"I-94/US-41, EXIT 1",Wadsworth,IL,444,3.819,39.714012,-121.182332
1128,TA CHICAGO NORTH TRAVEL CENTER,"I-94/US-41, EXIT 1",Wadsworth,IL,444,3.879,27.553452,-123.670662
1128,TA CHICAGO NORTH TRAVEL CENTER,"I-94/US-41, EXIT 1",Wadsworth,IL,444,3.779,46.509011,-113.264638
1128,TA CHICAGO NORTH TRAVEL CENTER,"I-94/US-41, EXIT 1",Wadsworth,IL,444,3.769,42.827167,-98.131767
1132,SPEEDWAY #7423,"I-57, EXIT 83",Ina,IL,293,3.249,40.535922,-75.499745
1136,PILOT TRAVEL CENTER #171,"I-74, EXIT 206",Oakwood,IL,280,3.399,41.382135,-114.30084
1136,PILOT TRAVEL CENTER #171,"I-74, EXIT 206",Oakwood,IL,280,3.499,47.562344,-106.368762
1136,PILOT TRAVEL CENTER #171,"I-74, EXIT 206",Oakwood,IL,280,3.599,46.547017,-101.981158
1140,CIRCLE K #4701398,"I-55, EXIT 82 & SR-104",Divernon,IL,280,3.499,41.390321,-69.30681
1149,PILOT TRAVEL CENTER #30,"I-70, EXIT 96",Greenfield,IN,375,3.959,35.958392,-122.625432
1149,PILOT TRAVEL CENTERS #30,"I-70, EXIT 96",Greenfield,IN,375,3.959,27.526167,-79.372695
1151,SPEEDWAY #8061,"I-70, EXIT 115 & SR-109",Knightstown,IN,375,3.759,46.710833,-83.637294
1154,CIRCLE K #2704691,SR-71 & CR-214,Cedar Creek,TX,595,3.199,26.466467,-122.32594
1156,CIRCLE K #4700028,"I-74/US-421, EXIT 116 & SR-44",Shelbyville,IN,375,3.599,25.487551,-99.708944
1157,One9 #297,"I-70, EXIT 11 & SR-46",Terre Haute,IN,510,3.43566666,37.272595,-106.641631
1158,PILOT TRAVEL CENTERS #36,US-30& SR-49,Valparaiso,IN,365,3.869,30.889352,-95.237598
1158,PILOT TRAVEL CENTER #36,US-30& SR-49,Valparaiso,IN,365,3.859,37.246537,-95.46462
1163,SHORT STOP #13,US-54,Emporia,KS,553,2.839,31.373721,-106.803186
1176,PILOT TRAVEL CENTERS #353,"I-75, EXIT 129",Georgetown,KY,410,3.20566666,40.717527,-97.0676
1179,PILOT TRAVEL CENTERS #399,"I-65, EXIT 105",Lebanon Junction,KY,415,3.609,25.73578,-112.956137
1196,SOUTHERN BELLE TRUCK STOP,US-61 & SR-964,Saint Francisville,LA,725,3.384,41.271046,-120.15964
1199,ALLTOWN MARKETS #306,"I-190, EXIT 7",Leominster,MA,178,3.68233333,42.317352,-97.562601
1202,ONE9 #290,"I-95, EXIT 93 & SR-222",Perryville,MD,22,3.599,47.871219,-81.162131
1204,PETRO STOPPING CENTER #321,"I-70 & I-57, EXIT 159",Effingham,IL,574,3.549,47.299124,-114.414344
1204,PETRO STOPPING CENTER #321,"I-70 & I-57, EXIT 159",Effingham,IL,574,3.349,36.260198,-96.085898
1204,PETRO STOPPING CENTER #321,"I-70 & I-57, EXIT 159",Effingham,IL,574,3.439,48.470623,-81.524203
1204,PETRO STOPPING CENTER #321,"I-70 & I-57, EXIT 159",Effingham,IL,574,3.399,40.936328,-110.003278
1208,D AVENUE FUEL PLAZA,US-131,Kalamazoo,MI,465,3.499,44.147796,-114.310868
1208,D AVENUE FUEL PLAZA,US-131,Kalamazoo,MI,465,3.099,41.668073,-74.36818
1210,ROADHAWK TRAVEL CENTER,"I-94, EXIT 56 & SR-51",Paw Paw,MI,465,3.599,47.073736,-88.747849
1210,ROADHAWK TRAVEL CENTER,"I-94, EXIT 56 & SR-51",Paw Paw,MI,465,3.559,31.144525,-119.191785
1217,KWIK TRIP #250,"I-90, EXIT 179",Austin,MN,515,3.374,45.929417,-77.6192
1218,CASEYS #3658,SR-210,Pillager,MN,522,3.299,31.598877,-74.640279
1225,AYERCO #35,US-61 & US-61 BUS,Bowling Green,MO,494,3.01566666,39.092487,-91.854729
1234,Lamar Travel Plaza,US-71 & US-160,Lamar,MO,416,3.199,34.714132,-79.060216
1236,AYERCO #44,US-36 & US-24,Palmyra,MO,494,3.01566666,30.103788,-75.346138
1240,TEMP STOP #103,US-65,Sedalia,MO,400,3.199,29.207177,-66.221459
1247,SNAPPY MART #11,US-63 & SR-14,West Plains,MO,535,3.299,28.159951,-106.54692
1251,MAPCO #3009,US-72,Corinth,MS,435,3.154,45.145755,-79.594521
1256,DOUBLE QUICK #89,US-82/US-278,Greenville,MS,655,3.25566666,31.836911,-103.093163
1265,JOE JOES TRAVEL CENTER,US-78 & RED BANKS RD S,Red Banks,MS,435,2.97233333,26.045707,-110.036419
1304,LOVES TRAVEL STOP #667,"I-85, EXIT 152",Mebane,NC,65,3.94733333,41.291671,-85.682657
1315,CIRCLE K #2720218,US-421 BUS & US-15/US-501/US-1,Sanford,NC,177,3.08233333,29.590459,-73.242276
1325,SCOTCHMAN #3303,US-421 & US-74,Wilmington,NC,245,3.629,43.170206,-118.759994
1326,SPEEDWAY #7949,US-301/US-264 ALT & CR-1674,Wilson,NC,205,3.199,26.797594,-100.096921
1333,PUMP & PANTRY #15,US-30,Grand Island,NE,330,3.30733333,27.076191,-75.576688
1340,BORDENTOWN VALERO,"NJ TNPK, EXIT 7 & US-206",Bordentown,NJ,230,3.499,45.940153,-99.380129
1342,Delta,"I-80, EXIT 47B",Fairfield,NJ,115,3.20233333,28.893214,-84.566888
1344,BOLLA TRUCK STOP #193,US-202 & SR-17,Mahwah,NJ,115,3.53233333,47.484995,-90.624181
1348,GLOBAL,SR-73,Palmyra,NJ,150,3.359,39.268468,-85.46948
1356,LOVES TRAVEL STOP #257,"I-40 & HORIZON, EXIT 79",Milan,NM,580,3.59066666,46.747296,-95.198155
1364,7- ELEVEN #40507,"I-80/I-90, MM 56 WB",Rolling Prairie,IN,465,3.98233333,34.126292,-112.703606
1372,PILOT TRAVEL CENTER #469,"I-77, EXIT 101 & SR-627",Canton,OH,249,3.62233333,32.089451,-77.680042
1376,FUEL MART #782,"I-75, EXIT 118",Lima,OH,411,3.08566666,33.562388,-82.400874
1379,TA LODI TRAVEL CENTER,"I-71, EXIT 209 & I-76/US-224, EXIT 1",Seville,OH,305,3.739,36.275703,-115.278021
1384,SUNOCO,"I-80/I-90, EXIT 13 & US-20ALT/SR-15",Montpelier,OH,550,3.41566666,43.897586,-100.669003
1391,ONCUE EXPRESS #2045,"I-35, EXIT 203 & SR-15",Billings,OK,500,3.21566666,38.02005,-121.156058
1395,DOMINO FOOD AND FUEL #1,"I-40, EXIT 66",Clinton,OK,483,3.099,43.557318,-123.478635
1404,ONE9 #339,"I-74, EXIT 4 & SR-63",Covington,IN,375,3.26233333,29.537303,-101.376687
1414,SAC SHOP #507,"I-70, EXIT 12/161",Breezewood,PA,14,4.099,34.707837,-102.730353
1424,GETTYSBURG TRAVEL PLAZA,US-15 & SR-394,Gettysburg,PA,70,3.899,37.679518,-90.398574
1428,CIRCLE K #4702408,"I-65, EXIT 168 & SR-38/SR-25",Lafayette,IN,375,3.43233333,32.95504,-106.495401
1432,KWIK FILL #259,"I-81, EXIT 57",Mechanicsburg,PA,70,4.049,29.239845,-116.689039
1444,PILOT TRAVEL CENTERS #346,"I-20, EXIT 92 & US-601",Lugoff,SC,135,3.43233333,40.495196,-123.34991
1445,PILOT TRAVEL CENTERS #402,"I-80, EXIT 367",Cheyenne,WY,795,3.709,25.521276,-80.530056
1447,HOT SPOT #3005,US-221,Chesnee,SC,210,3.199,39.686831,-110.100485
1453,EXPRESS STOP,US-278/SR-101/SR-6 & SR-113,Rockmart,GA,193,3.319,48.356377,-116.724198
1455,PETRO FLORENCE,"I-95, EXIT 169",Florence,SC,46,3.32566666,44.967988,-106.11506
1461,CIRCLE K #2705370,"I-26, EXIT 15 & US-176",Inman,SC,210,3.099,33.805156,-108.683016
1464,CIRCLE K #2723254,"I-20, EXIT 55 & SR-6",Lexington,SC,135,3.199,37.945308,-110.41803
1470,CIRCLE K #2705348,US-1,Beech Island,SC,135,3.159,43.743201,-113.577218
1479,TA SPARTANBURG TRAVEL CENTER,"I-85, EXIT 63 & SR-290",Duncan,SC,210,3.43233333,33.63966,-122.921577
1487,ROADRUNNER MARKET #6019,"I-81, EXIT 36 NORTH",Greeneville,TN,405,3.499,42.082727,-76.300237
1492,MAPCO #3538,"I-24, EXIT 174",Chattanooga,TN,285,2.899,41.730343,-85.728937
1507,CIRCLE K #4703941,"I-55, EXIT 5A",Memphis,TN,435,3.189,32.537201,-114.44568
1516,LOVES TRAVEL STOP #261,I-27 EXIT 116,Amarillo,TX,585,3.23233333,41.52185,-77.646408
1531,CircleK #4702365,"I-74, EXIT 112 & SR-9",Shelbyville,IN,375,3.509,43.448544,-103.052008
1533,YESWAY #1157,US-62,Brownfield,TX,700,2.99233333,37.156098,-85.305559
1546,SHELL,"I-35, EXIT 86 & SR-85",Dilley,TX,740,3.099,41.860301,-98.693419
1548,TOOT N TOTUM #107,US-287,Dumas,TX,585,3.03233333,48.30577,-95.798663
1552,STRIPES #40911,US-59 & SR-16,Freer,TX,625,3.099,30.284315,-116.724074
1555,SEIBERT TRAVEL PLAZA,"I-70, EXIT 405 & SR-59",Seibert,CO,800,3.499,46.208372,-90.017056
1560,CATTREZ,US-20 & SR-5,Irving,NY,38,2.899,30.195272,-119.324687
1560,CATTREZ,US-20 & SR-5,Irving,NY,38,2.999,42.563108,-85.913799
1562,I MART #108,"I-40, EXIT 108",Wildersville,TN,435,3.099,37.588559,-69.367694
1567,KUM & GO #4110,"I-235, EXIT 11",Des Moines,IA,320,3.02733333,26.338069,-91.696111
1579,FLYING J TRAVEL PLAZA #924- TOWN PUMP,"I-15, EXIT 122 & I-90 MM220",Butte,MT,816,3.56566666,46.036958,-68.989026
1582,LOVES TRAVEL STOP #250,I-40 EXIT 60,Amarillo,TX,585,3.314,26.054717,-81.390511
1585,Stripes 7Fleet #42498,US-385 & CR-1910,Andrews,TX,710,3.369,40.788723,-79.042755
1590,ROAD RANGER #240,"I-80 & I-94, EXIT 15-A",Lake Station,IN,365,3.559,29.615725,-68.029398
1596,FLYING J #305,"I-40, EXIT 39",Jamestown,NM,580,3.44233333,31.862904,-81.273367
1597,7-ELEVEN #36156,"I-70 & SR-519, EXIT 25/333",Eighty Four,PA,165,4.999,27.994091,-115.595594
1599,ONVO TRAVEL PLAZA,"I-81, EXIT 10",Mc Graw,NY,220,3.439,47.231452,-88.022754
1599,ONVO TRAVEL PLAZA,"I-81, EXIT 10",Mc Graw,NY,220,3.459,27.845925,-76.813602
1602,CIRCLE K #2723387,US-98,Beaumont,MS,620,3.56566666,46.836977,-82.635118
1606,DONNAS TRAVEL PLAZA,"I-5, EXIT 202",Marysville,WA,962,4.559,29.081238,-105.84279
1610,TA BALTIMORE TRAVEL CENTER,"I-95, EXIT 57",Baltimore,MD,22,4.759,31.685935,-100.376838
1618,GO MART FOOD STORE #33,US-33,Ripley,WV,44,3.499,42.205654,-82.376126
1621,CIRCLE K #2709337,"I-65, EXIT 262B",Birmingham,AL,615,3.489,30.68568,-78.646309
1622,RACEWAY #6973,US-380 & SR-114/SR-101,Bridgeport,TX,630,2.78233333,39.838798,-108.656026
1623,SAPP BROS TRAVEL CENTER,"I-70 & I-270, EXIT 278",Commerce City,CO,800,3.389,39.297888,-117.277253
1625,PILOT TRAVEL CENTERS #60,"I-26, EXIT 159",Bowman,SC,42,3.43233333,30.14637,-79.810982
1632,PILOT TRAVEL CENTERS #266,"I-10, EXIT 139 & SR-292",Las Cruces,NM,640,3.19066666,30.400487,-88.40053
1633,7-ELEVEN #36302,"I-35, EXIT 144",Von Ormy,TX,740,3.109,30.072493,-115.503335
1634,PILOT TRAVEL CENTERS #40,"I-94, EXIT 322",Oak Creek,WI,444,3.889,32.521282,-71.750132
1644,ALLSUPS CONVENIENCE STORE #2414,"I-20, EXIT 235",Roscoe,TX,575,2.929,34.712004,-67.092961
1646,SPEEDWAY #8310,US-6& US-31,Plymouth,IN,465,3.609,35.122079,-66.804826
1647,SPEEDWAY #8305,US-41 & SR-312,Hammond,IN,290,3.76566666,30.98297,-103.775667
1653,ROAD RANGER #187,"I-55, EXIT 289",Chicago,IL,520,3.569,31.805667,-82.838426
1653,ROAD RANGER #187,"I-55, EXIT 289",Chicago,IL,520,3.599,37.589068,-118.527965
1654,CEFCO #3,US-77/US190/SR-36,Cameron,TX,670,2.989,40.669496,-112.515851
1661,CHEVRON,"I-20, EXIT 101 & SR-151",Calhoun,LA,590,3.159,25.602872,-67.840963
1669,BETTY BEAVERS TRUCKSTOP,"I-90, EXIT 28",Fultonville,NY,12,3.149,40.001686,-67.866713
1669,BETTY BEAVERS TRUCKSTOP,"I-90, EXIT 28",Fultonville,NY,12,3.189,31.06544,-107.105232
1670,Petro Stopping Center #54,"I-44, EXIT 4 & SR-3",Joplin,MO,277,3.449,28.759661,-107.052745
1671,LOVES TRAVEL STOP #412,"I-95, EXIT 77",Dunn,NC,205,3.699,45.022358,-74.433692
1672,HANA TRAVEL PLAZA,"I-40,EXIT 77",Amarillo,TX,585,2.899,46.114682,-97.30578
1699,ALLENS FOOD MART280,US-280/US-231/SR-53/SR-38 & CR-8/CR-34,Sylacauga,AL,615,3.799,42.413691,-123.384649
1700,TOPPS FUEL STOPS,US-259/SR-49,Daingerfield,TX,723,3.109,39.343599,-90.874865
1720,TOOT N TOTUM #120,US-54 & S WESTERN AVE,Liberal,KS,585,3.01566666,37.506575,-106.893581
1749,HIGHWAY 96 FUEL STOP,US-96 & SR-62/FM-1004,Buna,TX,610,3.149,41.070618,-116.304119
1753,PWI #169,"I-35/US-77, EXIT 359 & CR-1304",Abbott,TX,765,2.899,32.29763,-100.579558
1773,M-46 AUTO TRUCK PLAZA,"US-131, EXIT 120 & SR-46",Howard City,MI,344,3.199,40.675131,-104.672482
1773,M-46 AUTO TRUCK PLAZA,"US-131, EXIT 120 & SR-46",Howard City,MI,344,3.599,35.647758,-110.149682
1773,M-46 AUTO TRUCK PLAZA,"US-131, EXIT 120 & SR-46",Howard City,MI,344,3.099,36.82911,-85.178813
1791,PILOT TRAVEL CENTERS #257,"I-20, EXIT 126 & FM-1788",Midland,TX,710,3.56566666,41.412543,-110.321877
1807,LOVES TRAVEL STOP #229,I-40 EXIT 96 & SR-207,Panhandle,TX,585,3.314,41.453359,-103.2985
1810,KENT KWIK #804,US-83,Perryton,TX,585,2.999,31.755884,-69.13388
1829,PILOT TRAVEL CENTERS #96,"SR- 60 & FL TURNPIKE, EXIT 193",Okeechobee,FL,143,3.719,26.294079,-66.681589
1829,PILOT TRAVEL CENTER #96,"SR- 60 & FL TURNPIKE, EXIT 193",Okeechobee,FL,143,3.699,27.408438,-107.27632
1832,CORNER FUEL CENTER,US-49,Hattiesburg,MS,620,3.299,25.576952,-103.094372
1834,PUMP N PANTRY #15,"I-20, EXIT 617 & US-59",Marshall,TX,766,2.899,47.200738,-66.315836
1849,Stripes #42457,US-67/US-277,San Angelo,TX,740,3.244,45.465874,-118.382239
1855,EXIT 76 AUTO TRUCK PLAZA,US-131,Byron Center,MI,344,3.499,29.094289,-98.07557
1858,FLYING J TRAVEL PLAZA #737,"I-10, EXIT 583",San Antonio,TX,740,3.224,43.080227,-113.563059
1859,GO MART FOOD STORE #44,"I-79, EXIT 67 & US-19/SR-4",Sutton,WV,44,3.559,28.224691,-96.231204
1860,MR FUEL #278,"I-75/71, EXIT 175 & SR-338",Walton,KY,300,3.019,46.708126,-71.859298
1861,PETRO STOPPING CENTER #315,"I-40, EXIT 66",Kingman,AZ,910,3.899,45.616005,-116.058069
1866,PRI MART FUEL CENTER,"I-94, EXIT 29",Benton Harbor,MI,465,3.799,46.762619,-119.187176
1866,PRI MART FUEL CENTER,"I-94, EXIT 29",Benton Harbor,MI,465,3.499,31.855738,-103.543974
1873,JDS TRUCKSTOP,"US-12 & US-31, EXIT 3",Niles,MI,465,3.749,29.477915,-91.465532
1873,JDS TRUCKSTOP,"US-12 & US-31, EXIT 3",Niles,MI,465,3.849,28.769384,-81.873061
1874,CIRCLE K #2744529,US-175,Seagoville,TX,630,2.95066666,41.349562,-90.598186
1879,HOLIDAY STATIONSTORE #3552,"I-35, EXIT 81 & SR-70",Lakeville,MN,448,3.549,28.71155,-93.212826
1888,STRIPES 7FLEET #42449,US-87,Sterling City,TX,710,3.28066666,45.296293,-93.73371
1889,TOOT N TOTUM #105,US-54 & US-287,Stratford,TX,585,2.96566666,43.43912,-71.32128
1893,MIKE MCDONALD TRUCK STOP,"I-20, EXIT 509",Terrell,TX,637,2.87066666,46.540375,-110.249393
1894,CIRCLE K #2741544,"I-37 & SR-72, EXIT 69",Three Rivers,TX,747,3.06566666,38.07457,-94.70633
1897,YESWAY #1077,"I-20/US-84, EXIT 278",Tye,TX,575,2.87566666,40.674615,-119.573803
1905,LUCKY TRUCK STOP,US-82,Whitesboro,TX,630,2.88566666,27.624019,-112.34948
1909,RALLYSTOP #1,"I-15, EXIT 62",Cedar City,UT,791,3.459,36.511867,-121.695328
1914,LOVES TRAVEL STOP #792,"I-70, EXIT 160",Green River,UT,835,3.709,37.186467,-104.924187
1921,BELL TRUCK STOP,"I-80, EXIT 146",Park City,UT,835,3.45233333,40.290072,-83.601216
1923,SCENIC QUIK STOP,"I-70, EXIT 54 & US-89",Salina,UT,835,3.459,34.933429,-98.950365
1930,CASEYS #3058,"I-35, EXIT 19 & US-160 E",Wellington,KS,570,3.299,37.671093,-86.419799
1931,RBS ONE STOP,"I-15, EXIT 320",Woods Cross,UT,835,3.459,30.404901,-114.822142
1934,CIRCLE K #2723710,"I-77, EXIT 24",Austinville,VA,185,3.24066666,37.865533,-74.746827
1936,QUICK STOP MARKET #36,"I-81, EXIT 10 & US-11",Bristol,VA,185,3.399,37.182848,-71.605393
1940,7-ELEVEN #40063,"I-81, EXIT 98 & SR-100",Dublin,VA,65,3.199,29.552193,-84.539827
1944,LOVES TRAVEL STOPS #399,"I-77, EXIT 1 & SR-620",Lambsburg,VA,65,3.589,33.025523,-106.277792
1944,LOVES TRAVEL STOP #399,"I-77, EXIT 1 & SR-620",Lambsburg,VA,65,3.589,45.665636,-67.734991
1950,7-ELEVEN #34515,"I-81, EXIT 205",King George,VA,180,3.399,39.661419,-94.919901
1951,CIRCLE K #2723713,"I-81, EXIT 205",Staunton,VA,185,3.38566666,28.836814,-90.289678
1953,FAS MART #3555,"I-64, EXIT 136 & US-15",Gordonsville,VA,180,3.699,45.592058,-90.612095
1954,Joe's Kwik Mart #8409,US-58 & CR-645,Suffolk,VA,130,3.03233333,47.911576,-117.930872
1956,PILOT TRAVEL CENTER #4642,"I-81, EXIT 291",Toms Brook,VA,60,3.659,31.074238,-109.370649
1958,SPEEDWAY #4618,"I-81 & I-77, EXIT 77",Wytheville,VA,185,3.41233333,35.023022,-90.241327
1960,MAPLEWOOD IRVING,"I-89, EXIT 7",Montpelier,VT,170,3.699,26.867246,-119.103469
1962,SUPER QUIK,"I-64, EXIT 172 & SR-1/SR-7",Grayson,KY,255,3.799,31.691365,-109.652412
1976,One9 #963,"I-90, EXIT 276",Spokane,WA,970,3.989,35.142622,-115.395826
1976,One9 #963,"I-90, EXIT 276",Spokane,WA,970,3.959,28.905597,-85.936005
1977,GEE CEES TRUCK STOP,"I-5, EXIT 57",Toledo,WA,977,3.839,43.257359,-111.401011
1983,KWIK TRIP #427,"US-53, EXIT 110 & SR-40",Bloomer,WI,295,3.41566666,26.558606,-115.462039
1985,Camp Douglas BP,"I-90 & I-94, EXIT 55",Camp Douglas,WI,420,3.154,44.50265,-81.96123
2000,RIVER CITY TRAVEL PLAZA,US-41,Marinette,WI,360,3.399,33.749304,-99.77002
2002,KWIK TRIP #222,US-53/US-2,Superior,WI,334,3.339,33.09505,-100.684438
2009,KWIK TRIP #139,"I-43, EXIT 120 & CR-V/CR-OK",Sheboygan,WI,444,3.29066666,40.372763,-120.885803
2020,BFS FOODS #72,"I-68, EXIT 23 & SR-26",Bruceton Mills,WV,165,3.499,38.682274,-71.482441
2021,GO MART FOOD STORE #59,"I-64, EXIT 15 & US-60",Huntington,WV,255,3.499,36.865937,-70.401329
2022,GO MART FOOD STORE #86,"I-79, EXIT 40 & SR-16",Ivydale,WV,44,3.599,36.255901,-73.636289
2029,HOMAX SERVICE,"I-25, EXIT 188",Mills,WY,790,3.169,39.094976,-123.459608
2030,GHOST TOWN FUEL STOP,US-26/US-20,Casper,WY,790,3.429,42.679426,-68.54756
2034,TA CHEYENNE TRAVEL CENTER,"I-80, EXIT 377 & SR-217/CR-140",Cheyenne,WY,795,3.699,34.154887,-91.764407
2040,Fast Stop Travel Centers #1133,"I-25, EXIT 126 & US-18/20",Douglas,WY,790,3.499,45.561323,-86.64242
2041,PINE BLUFFS SINCLAIR,"I-80, EXIT 401 & US-30",Pine Bluffs,WY,795,3.699,42.277359,-123.973296
2044,One9 #1251,"I-80, EXIT 173",Wamsutter,WY,795,3.499,29.500333,-95.580787
2074,STRIPES #40522,"I-10, EXIT 550",San Antonio,TX,740,3.059,25.128011,-87.732594
2076,ALLSUPS CONVENIENCE STORE #2159,US-283 BUS/US-277 BUS & SR-422,Seymour,TX,770,3.299,33.829777,-75.220246
2078,ALLSUPS CONVENIENCE STORE #2366,US-84 & CR-3300,Slaton,TX,700,2.969,32.656591,-97.285219
2084,Main Street Market #112,"I-20, EXIT 73",Wickett,TX,710,2.879,43.942015,-107.330966
2087,LWS TRUCK STOP,SR-30,Logan,UT,835,3.42566666,38.883146,-75.318259
2088,FLYING J TRAVEL PLAZA #773,"I-70, EXIT 40",Richfield,UT,835,3.699,42.9002,-76.414469
2089,FLYING J TRAVEL PLAZA #774,"I-84, EXIT 7",Snowville,UT,835,3.749,25.439739,-117.463303
2115,KWIK TRIP #838,SR-23/SR-33,Reedsburg,WI,420,3.194,30.545224,-85.534514
2125,BIG D #44,"I-80, EXIT 311 & SR-130",Laramie,WY,795,3.249,41.686269,-77.429945
2144,Mountain View Truck Stop,US-15,Thurmont,MD,60,4.099,35.734171,-66.80071
2152,SPEEDWAY #4709,"I-90, EXIT 102",Fairmont,MN,425,3.299,48.952101,-101.528112
2167,PILOT TRAVEL CENTERS #134,"I-94, EXIT 171 (CR 75)",Saint Cloud,MN,451,3.28733333,32.847594,-78.668982
2182,PILOT TRAVEL CENTER #4649,"I-64 & I-81, EXIT 205",Raphine,VA,185,3.659,45.408681,-71.25398
2192,GO MART FOOD STORE #51,US-19/SR-129,Mount Nebo,WV,44,3.599,32.115297,-99.713912
2194,A AND A TRUCKSTOP,US-35 & CR-41,Jackson,OH,315,3.799,26.81993,-122.443617
2196,Certified Oil #400410,I-76 EXIT 43,Ravenna,OH,249,3.31566666,47.826827,-100.140016
2204,NATURAL BRIDGE SHELL,US-278 & SR-5,Lynn,AL,615,3.68233333,25.968926,-67.686476
2209,Roadrunner #471,"I-40/US-65, EXIT 142 & SR-365",North Little Rock,AR,695,3.03233333,34.556267,-95.527264
2219,PILOT TRAVEL CENTER #66,"I-85, EXIT 129",Braselton,GA,16,3.27233333,29.981661,-81.824787
2219,PILOT TRAVEL CENTERS #66,"I-85, EXIT 129",Braselton,GA,16,3.27233333,32.186527,-89.02882
2223,PO JOS GAS N GO,"I-16 SR-404, EXIT 116 & US-301/SR-73",Register,GA,195,3.23233333,46.395526,-119.885956
2227,SPEEDWAY #7448,SR-59,Naperville,IL,293,3.299,42.595753,-116.658919
2227,SPEEDWAY #7448,SR-59,Naperville,IL,293,3.359,36.205803,-99.181843
2231,QUIKTRIP #605,"I-270, EXIT 33",Saint Louis,MO,540,2.899,34.685296,-91.256118
2255,S&G #36,"I-280, EXIT 2 & SR-795",Millbury,OH,550,3.49233333,45.188398,-66.958794
2267,Circle K #4703917,"I-65, EXIT 112 & SR-25",Cross Plains,TN,460,2.949,30.215132,-97.863103
2283,CIRCLE K #2707321,SR-60,Bartow,FL,225,3.52233333,30.700803,-95.640634
2287,SAC SHOP #511,"I-76/I-70, EXIT 146 & I-99/US-220 EXIT 1",Bedford,PA,14,4.099,44.246346,-105.335948
2306,SCOTCHMAN #3894,"I-77, EXIT 73 & SR-901",Rock Hill,SC,210,3.079,39.375879,-116.799586
2310,MAPCO #3686,"I-24, EXIT 175",Chattanooga,TN,285,2.889,48.779893,-100.73058
2311,SHELL,"I-24 & EPPS MILL RD, EXIT 89",Christiana,TN,460,3.13233333,26.195098,-87.758342
2331,PINNERS POINT,SR-135,Portsmouth,VA,130,3.499,43.616553,-90.070893
2336,FLYING J TRAVEL PLAZA #754,"I-77 & I-81, EXIT 77",Wytheville,VA,185,3.549,48.171145,-90.418272
2340,RSTORE #4478,SR-8 & SR-13,Prentice,WI,395,3.039,44.319406,-71.816689
2557,PWI #106,"I-30, EXIT 77B",Royse City,TX,630,2.899,28.092773,-94.927093
2602,PILOT TRAVEL CENTERS #9,"I-75, EXIT 36",Franklin,OH,407,3.35233333,29.091333,-108.126777
2623,TA JANESVILLE TRAVEL CENTER,"I-90/I-39, EXIT 171B & US-14",Janesville,WI,420,3.299,33.752999,-74.527198
2626,WEST END SINCLAIR,"I-80, EXIT 211",Rawlins,WY,838,3.319,36.725547,-82.706073
2629,PILOT TRAVEL CENTERS #253,"I-295 & NJ TRNPK,EXIT 2B",Penns Grove,NJ,243,3.989,35.988511,-123.392172
2635,FLYING J #584,"I-5, EXIT 278",Aurora,OR,935,3.859,38.908796,-115.943216
2638,PIT STOP TRAVEL CENTER,US-789,Riverton,WY,790,4.399,40.309285,-74.068421
2640,LITTLE NASHVILLE,"I-64, EXIT 50 & SR-127",Nashville,IL,540,3.399,31.764311,-103.528492
2640,LITTLE NASHVILLE,"I-64, EXIT 50 & SR-127",Nashville,IL,540,3.299,35.026807,-89.500633
2644,FREDERICKS TRAVEL CENTER,"I-25/US-87, EXIT 235 & SR-52",Erie,CO,800,3.499,37.04098,-102.66145
2756,PAR MAR FOOD STORE #89,"I-77/SR-2, EXIT 170 & SR-14 E",Mineral Wells,WV,430,3.499,32.307331,-100.642971
2761,PONY EXPRESS SERVICE CENTER,US-36 & SR-148,Hanover,KS,316,2.95566666,32.128993,-115.142876
2764,LOVES TRAVEL STOP #046,US-64/54 & SR-94,Hooker,OK,585,3.56233333,33.063886,-66.847595
2765,LOVES TRAVEL STOP #023,US-50 & US-287,Lamar,CO,525,3.46233333,27.202844,-104.218791
2772,PILOT TRAVEL CENTERS #29,"I- 80, EXIT 144; I-69, EXIT 357",Fremont,IN,465,3.899,47.212193,-91.432601
2772,PILOT TRAVEL CENTER #29,"I- 80, EXIT 144; I-69, EXIT 357",Fremont,IN,465,3.899,27.174376,-73.343354
2779,Stinker #121,I-84 & EXIT 208,Heyburn,ID,787,3.56066666,40.100884,-73.852073
2788,JIFFY MART #451,"I-91, EXIT 17 & SR-302",Wells River,VT,39,3.569,34.136158,-101.030526
2805,Fast Stop Travel Centers #1145,"I-15,EXIT 31",Downey,ID,825,3.799,44.252709,-105.95645
2807,SUDDEN SERVICE #25,"I-24, EXIT 11",Clarksville,TN,460,3.30733333,42.425567,-116.157556
2811,KWIK FILL #22,"I-90, EXIT 40 & SR-34/SR-31",Weedsport,NY,220,3.899,40.643288,-73.379274
2817,Chevron #382354,"I-5/US-12, EXIT 72",Chehalis,WA,977,4.299,27.683756,-78.445031
2848,TA TONOPAH TRAVEL CENTER,"I-10, EXIT 103",Tonopah,AZ,930,3.939,42.897028,-92.831763
2851,SPEEDWAY #2958,"I-8, EXIT 12",Yuma,AZ,900,3.479,25.564292,-123.412306
2862,TA TALLULAH TRAVEL CENTER,"I-20, EXIT 171 & US-65",Tallulah,LA,760,3.209,45.416493,-86.675575
2864,KUM & GO #0493,I-49 BUS/SR-59,Neosho,MO,535,3.059,40.536837,-115.69147
2875,CIRCLE K #2744138,"I-25, EXIT 101 & US-50/SR-47",Pueblo,CO,803,3.399,35.310098,-82.441185
2883,PILOT TRAVEL CENTER #293,"I-75, EXIT 341 & CR-484",Ocala,FL,140,3.41233333,34.459196,-102.791251
2883,PILOT TRAVEL CENTERS #293,"I-75, EXIT 341 & CR-484",Ocala,FL,140,3.359,26.36661,-81.054051
2885,SP Truckstop & Travel Center,US-84/SR-38,Bainbridge,GA,20,3.599,32.445103,-85.414055
2889,MOULTON COWBOYS,SR-157,Moulton,AL,615,3.099,33.187406,-94.378617
2891,PETRO STOPPING CENTER #338,"I-80, EXIT 21",Sparks,NV,966,3.949,43.900605,-70.548658
2895,EAGLE TRUCK STOP,I-77 EXIT 81,New Philadelphia,OH,249,3.31566666,39.990973,-95.961009
2896,NORTH LEWISTON DYNAMART,US-12 & SR 128,Lewiston,ID,970,3.669,35.447786,-123.397471
2897,GAS N GO #15,"I-80, EXIT 41",Lyman,WY,827,3.46566666,30.058747,-110.050041
2910,FLYING J TRAVEL PLAZA #685,"I-29 & I- 94, EXIT 349",Fargo,ND,341,3.569,45.375903,-115.707709
2913,ONE9#226,"I-40, EXIT 417 & SR-92",Dandridge,TN,405,3.259,42.441243,-84.701236
2915,TP TRUCK STOP,"I-15, EXIT 80",Fort Hall,ID,825,3.519,44.121254,-113.188554
2917,GOLDYS TRUCK PLAZA,US-29,Rustburg,VA,185,3.519,39.397434,-89.38915
2922,LOVES TRAVEL STOP #210,"I-40, EXIT 158",Albuquerque,NM,580,3.52066666,30.534876,-92.018498
2923,LOVES TRAVEL STOP #435,"I-95, EXIT 104 & SR-207",Ruther Glen,VA,180,3.611,44.995063,-86.615377
2923,LOVES TRAVEL STOPS #435,"I-95, EXIT 104 & SR-207",Ruther Glen,VA,180,3.589,25.012388,-84.419344
2924,HWY 190 FUEL STOP,US-190,Jasper,TX,610,3.13233333,26.132531,-84.175353
2926,EXIT 77 TRAVEL PLAZA,"I-81, EXIT 77 & SR-39",Harrisburg,PA,70,3.499,26.808697,-77.200843
2929,TA EXPRESS STEELE,"I-94, EXIT 200 & SR- 3",Steele,ND,390,3.599,28.456328,-84.752296
2935,CIRCLE K #2726163,"I-295, EXIT 22",Jacksonville,FL,75,3.299,40.288391,-109.492138
2937,FLYING J TRAVEL PLAZA #664,"I-75, EXIT 171",Walton,KY,300,3.08566666,38.846661,-77.716007
2956,PILOT TRAVEL CENTERS #275,"I-85, EXIT 39 I-77, EXIT 13",Charlotte,NC,46,3.55233333,48.162182,-75.333088
2963,SUPERPUMPER #26,"I-94, EXIT 258 & US-281",Jamestown,ND,390,3.629,46.320787,-95.387266
2967,PETRO STOPPING CENTER #317,"I-57, EXIT 71",Perrysburg,OH,550,3.78566666,44.85431,-107.625867
2968,E-Z MART #4460,"I-20,EXIT 124",Monroe,LA,719,3.129,48.125309,-97.077597
2977,DISCOUNT FUEL,"I-90, EXIT 150 & SR-73",Kadoka,SD,506,3.229,45.568029,-107.808604
2982,CIRCLE K #2723726,"I-59/I-20, EXIT 52 & US-11/US-43/SR-7",Knoxville,AL,705,3.089,45.858472,-88.991469
3003,CHEVRON,"I-20, EXIT 186",Delta,LA,760,2.994,48.992286,-88.961469
3008,BUSY BEE,"I-10, EXIT 283 & US-129",Live Oak,FL,10,3.779,45.362769,-118.883278
3022,TA GREENCASTLE TRAVEL CENTER,"I-81, EXIT 5",Greencastle,PA,70,3.959,43.635888,-87.204952
3030,Mr Ts Riverside,US-412,Cardwell,MO,435,3.199,45.282403,-105.417308
3064,PORTS TO PLAINS TRAVEL PLAZA,US-50 & US-287,Lamar,CO,800,3.399,32.696503,-86.607246
3086,SPEEDWAY #4638,US-29,Madison Heights,VA,185,3.49566666,35.622472,-103.546595
3093,RSTORE #4488,US-51,Merrill,WI,395,3.24066666,38.348259,-117.92062
3096,HOBO PANTRY #6,US-431/SR-210,Dothan,AL,20,3.959,43.704388,-83.417359
3118,MOBIL,"I-87, EXIT 42 & US-11",Champlain,NY,39,3.799,47.317481,-108.872684
3128,TA ATLANTA SOUTH TRAVEL CENTER,"I-75, EXIT 201 & SR-36",Jackson,GA,18,3.334,35.888633,-99.848037
3138,TA EXPRESS #6264,"I-70, EXIT 26 & US-50",Grand Junction,CO,800,4.049,34.133715,-103.012145
3139,CHEROKEE TRAVEL MART,"I-40,EXIT 108",Calumet,OK,483,3.10566666,42.921871,-121.849283
3148,YESWAY #1038,US-60 & SR-86,Neosho,MO,307,3.059,48.375004,-94.986627
3155,QUIK MART #18,US-72/SR-157,Tuscumbia,AL,615,3.00733333,41.114244,-103.389855
3163,QUIKTRIP #71,"I-44, EXIT 238",Tulsa,OK,560,3.039,44.607899,-77.303677
3164,QUIKTRIP #102,"I-44, EXIT 222A",Tulsa,OK,560,3.039,32.47307,-99.659709
3165,LOVES TRAVEL STOP #213,"I-35, EXIT 211",Tonkawa,OK,500,3.584,48.66233,-107.37379
3167,JASPER FOOD MART,US-78,Jasper,AL,615,3.229,46.040351,-106.754841
3171,One9 #265,"I-40, EXIT 287 & SR-136",Cookeville,TN,405,3.084,47.663433,-121.063767
3176,BP,US-6 & SR-15,New Paris,IN,365,3.65733333,29.378124,-114.262552
3178,ERNIES FUEL STOP #1605,SR-167,Kent,WA,977,4.599,39.466671,-81.99382
3179,MR FUEL #1020,"I-80 & I-94, EXIT 15B",Lake Station,IN,365,3.56566666,30.407208,-119.979426
3191,BUSY CORNER TRUCK STOP AND MARKET,"I-24, EXIT 105 & US-41/SR-2",Manchester,TN,460,3.049,34.152783,-117.052573
3205,CROSSROADS TRUCK STOP STATION,"I-29 & SR 34, MM 109",Colman,SD,530,3.159,32.84997,-109.60801
3206,PERHAM OASIS,US-10 & SR-78,Perham,MN,250,3.499,38.404238,-93.156069
3215,SHELL TRUCKSTOP,"I-4, EXIT 44",Polk City,FL,225,3.449,38.47136,-99.767853
3216,MAXS #124,"I-24, EXIT 86 & US-41",Oak Grove,KY,460,3.04233333,33.544123,-70.075693
3221,Pilot #1440,"US-67, EXIT 55 & US-64/US-167 & SR-367",Bald Knob,AR,695,3.399,45.697389,-110.337469
3221,Southern Travel Plaza,"US-67, EXIT 55 & US-64/US-167 & SR-367",Bald Knob,AR,695,3.391,40.290226,-117.631403
3222,POMPANO TRUCK STOP,"I-95, EXIT 36B",Pompano Beach,FL,95,3.759,34.912548,-96.42247
3226,ONE9 #245,"I-81, EXIT 77 & SR-39",Harrisburg,PA,70,3.609,26.702525,-118.643388
3227,ONE9 MR FUEL #64,"I-26 & US-17, EXIT 199",Summerville,SC,42,3.219,26.800521,-114.894456
3227,MR FUEL DBA ONE9 #64,"I-26 & US-17, EXIT 199",Summerville,SC,42,3.219,40.884145,-111.500683
3230,STRIPES #40815,US-281 & US-285,Falfurrias,TX,625,3.299,33.256413,-87.080301
3264,TA WEST MEMPHIS TRAVEL CENTER,"I-40/US-63, EXIT 260 & SR-149",Earle,AR,435,3.36733333,35.5612,-107.269964
3280,OUTPOST TRUCK STOP,US-85 & US-18/US-20,Lusk,WY,790,3.689,41.202504,-87.670444
3281,AMERICAN TRUCK PLAZA,I-80 EXIT 215 & SR-254,Milton,PA,138,3.799,38.005176,-100.761376
3284,CASEYS #4390,"I-49/US-71, EXIT 77 & US-160",Lamar,MO,416,3.199,30.610669,-66.318055
3297,SAPP BROS TRAVEL CENTER,"I-80, EXIT 370",Cheyenne,WY,795,3.70066666,42.097373,-122.040153
3316,TRUCKOMAT OF N LITTLE ROCK,"I-40, EXIT 161 & SR-391",North Little Rock,AR,695,3.249,25.176906,-85.198544
3326,MIRABITO #61,"I-81, EXIT 32",Central Square,NY,12,4.299,29.119719,-115.152754
3330,TA # 211 GREENLAND TRAVEL CENTER,"I-95, EXIT 3A & US-101",Greenland,NH,34,3.759,45.579666,-114.506095
3349,QUEEN CITY TRUCK STOP,"I-20 & I-59, EXIT150",Meridian,MS,705,2.939,48.207754,-85.742159
3383,E-Express at Central Truck Stop,"I-35, EXIT 137",Oklahoma City,OK,483,2.879,41.673819,-98.86823
3386,LONGMONT TRUCK STOP,"I-25/US-87, EXIT 240 & SR-119",Longmont,CO,800,3.239,45.562801,-113.08612
3401,POPS Mart #333,"I-77, EXIT 48 & SR-200",Winnsboro,SC,46,3.09066666,25.6012,-109.476745
3413,COUNTRY GIRL TRUCK STOP,US-167 & SR-156,Winnfield,LA,590,3.319,31.972045,-109.12978
3415,JAYS EL CHEAPO FUEL STOP,"I-16, EXIT 104",Metter,GA,195,3.249,29.018161,-79.961106
3418,Par Mar Store #164,"I-79, EXIT 105 & CR-7",Jane Lew,WV,165,3.999,29.493993,-109.214432
3421,ERNIES TRUCK STOP,"I-5, EXIT 142",Federal Way,WA,977,4.599,35.247439,-87.607375
3422,PWI #167,"I-10, EXIT 601",Seguin,TX,740,2.889,45.824347,-92.635945
3427,JOHNNYS MARKET,"I-69, EXIT 357",Fremont,IN,465,3.699,30.832107,-115.78849
3432,PILOT TRAVEL CENTER #34,"I-65, EXIT 201 & US-231",Remington,IN,365,3.709,46.499376,-96.54437
3432,PILOT TRAVEL CENTERS #34,"I-65, EXIT 201 & US-231",Remington,IN,365,3.659,28.092133,-72.020122
3435,PWI #168,"I-35, EXIT 266 & SR-195",Georgetown,TX,740,2.799,39.94274,-72.005002
3444,Acme Truck Stop,US-441/SR-500,Orlando,FL,140,3.449,28.0506,-120.544087
3460,CHROME TRUCK STOP,US-18 & US-169,Algona,IA,433,3.499,40.197331,-98.712228
3464,BOISE PETROLEUM LLC,"I-84,EXIT 71",Boise,ID,785,3.379,40.567146,-99.488414
3471,MR FUEL DBA ONE9 #72,"I-16, EXIT 160",Savannah,GA,195,3.13233333,36.440733,-96.03131
3471,ONE9 MR FUEL #72,"I-16, EXIT 160",Savannah,GA,195,3.119,32.615439,-115.593706
3475,PILOT TRAVEL CENTERS #56,"I-85, EXIT 63",Kannapolis,NC,46,3.499,40.901095,-83.739433
3477,CIRCLE K #4707404,"I-91, EXIT 7",Springfield,VT,170,3.699,31.29057,-78.925453
3479,FAST MARKET #4550,"I-75/SR-401, EXIT 136 & US-341",Perry,GA,85,3.099,39.770761,-91.611162
3493,CIRCLE K #2723675,"I-75, EXIT 290 & SR-20",Cartersville,GA,18,3.08566666,43.243772,-93.872967
3519,PILOT TRAVEL CENTERS #431,"I-10, EXIT 873",Orange,TX,610,3.309,43.481596,-77.178839
3522,SUNMART #308,US-59,Livingston,TX,610,2.859,30.194123,-113.97538
3526,JOE STOP 99,"I-75, EXIT 99 & SR-119",Anna,OH,411,3.064,28.905184,-104.485896
3530,SPARKYS ONE STOP #22,"I-35, EXIT 111B & US-30",Jefferson,IA,320,3.23233333,48.817038,-98.410369
3536,PETRO STOPPING CENTER #307,I-40 EAST & S LAKESIDE Dr,Amarillo,TX,585,3.279,30.625533,-115.338368
3539,Bigs 211,"I-10, EXIT 620 & SR-123",Seguin,TX,740,3.099,25.765552,-94.335347
3545,STOCKMENS TRUCK PLAZA,"I-494, EXIT 64A",South Saint Paul,MN,450,3.499,32.03936,-118.331998
3580,STINKER I 80 TRAVEL PLAZA,"I-80, EXIT 221 & SR-76",Sinclair,WY,838,3.759,38.10554,-78.008873
3585,CHEVRON,"I-80, EXIT 129",Lovelock,NV,966,3.499,29.655653,-110.77701
3588,BINGO TRUCK STOP,"I-10, EXIT 829 & SR-124",Winnie,TX,610,2.999,25.094375,-119.752339
3592,TA BRIDGER TRAVEL CENTER #188,"I-80, EXIT 30 & CR-202",Fort Bridger,WY,835,3.71566666,27.537484,-121.013963
3593,TA Parowan Travel Center,"I-15, EXIT 78",Parowan,UT,910,3.70566666,36.491961,-106.186724
3605,SPEEDYS #6,"I-35, EXIT 33",Saint Joseph,MO,400,3.169,29.574331,-109.657098
3608,FUEL MART #787,"I-57, EXIT 212 & US-36",Tuscola,IL,280,3.199,44.880324,-96.143642
3614,PILOT TRAVEL CENTERS #35,"I-80/90, EXIT 72 & US-31",South Bend,IN,465,3.799,46.524218,-100.398389
3614,PILOT TRAVEL CENTER #35,"I-80/90, EXIT 72 & US-31",South Bend,IN,465,3.799,38.211961,-74.337717
3616,PILOT TRAVEL CENTERS #15,"I-75, EXIT 210",Toledo,OH,550,3.77233333,43.160163,-87.427454
3619,ROAD RANGER #141,"I-70, EXIT 23",Brazil,IN,375,3.659,28.76646,-108.250207
3620,One9 #16,"I-71 & US-68, EXIT 50",Wilmington,OH,315,3.14233333,46.830481,-69.649601
3645,SNOW SHOE TRAVEL PLAZA,"I-80, EXIT 147 & SR-144",Snow Shoe,PA,14,3.469,44.656878,-69.027527
3678,TIMES MARKET #299,US-281 BUS,Alice,TX,625,3.099,45.772739,-121.221811
3688,SPEEDWAY #2314,"I-94, EXIT 243 & SR-29",New Baltimore,MI,342,3.559,43.998926,-91.746659
3688,SPEEDWAY #2314,"I-94, EXIT 243 & SR-29",New Baltimore,MI,342,3.579,30.283484,-68.787543
3692,CHARLOTTE TRAVEL PLAZA,"I-77,EXIT 16B",Charlotte,NC,46,3.53233333,39.327701,-102.832332
3699,WARREN TRAVEL PLAZA,"I-69, EXIT 278 & SR-5",Warren,IN,375,3.399,33.356974,-69.087616
3702,BEARS DEN TRADING POST #101,ST 37 11 MI E OF MASSENA,Hogansburg,NY,39,3.649,33.740522,-82.089734
3707,SPEEDWAY #4704,"I-90, EXIT 154",Albert Lea,MN,425,3.299,35.242727,-102.518673
3718,SPEEDWAY #4706,"I-90, EXIT 265",Chamberlain,SD,455,3.299,44.615002,-105.944483
3719,KEYSTONE TRUCK STOP,US-22 & SR-164,Loretto,PA,14,3.999,46.783747,-119.540009
3725,GENEVA TRUCK STOP,"I-79, EXIT 35/141",Cochranton,PA,240,3.81566666,32.179119,-100.284097
3728,PLAZA 23 TRUCK STOP,"I-787, EXIT 2",Albany,NY,12,3.799,42.230111,-80.835281
3737,JORDAN'S KWIK STOP #70,US-49,West Helena,AR,435,3.399,40.041921,-75.710326
3745,PILOT TRAVEL CENTER #906-TOWN PUMP,"I-90, EXIT 408 & SR-78",Columbus,MT,780,3.58066666,40.873395,-75.316424
3759,EXXON,US-67 & SR-18,Newport,AR,695,4.13233333,33.63712,-96.336297
3767,SIMMONS TRAVEL CENTER,"I-95, EXIT 8 & US-301",Emporia,VA,180,3.099,40.710134,-99.034777
3772,Brake Time Corner Market,"I-25, EXIT 240",Burlington,CO,800,3.499,45.649867,-111.394029
3774,SINCLAIR,"I-70, EXIT 438",Burlington,CO,796,3.889,42.377139,-123.727031
3781,REATTA TRAVEL STOP,"I-76, EXIT 149 & SR-55/CR-81",Crook,CO,475,3.38233333,46.235777,-113.957421
3783,CIRCLE K #2744095,"I-25, EXIT 215",Denver,CO,800,3.299,36.073436,-76.571547
3794,SPEEDWAY #4701,"I-90, EXIT 73",Jackson,MN,425,3.299,39.586595,-93.988974
3817,FAST MARKET,"I-25, EXIT 158",Colorado Springs,CO,803,3.159,39.754069,-118.737893
3843,ONCUE EXPRESS #61,"I-35, EXIT 185 & US-77",Perry,OK,500,3.21566666,42.212209,-88.75811
3868,SHORE STOP #279,US-13,Greenwood,DE,194,3.239,31.357824,-117.541267
3868,SHORE STOP #279,US-13,Greenwood,DE,194,3.259,42.471851,-99.241547
3888,Fics Plaza,"I-90, EXIT 184",Deer Lodge,MT,816,3.519,47.533945,-103.581168
3889,CIRCLE K #2701686,"I-75, EXIT 220",Bradenton,FL,225,3.439,31.807138,-79.670078
3907,SUNOCO,US-46 & SR-93,Palisades Park,NJ,105,3.279,39.962263,-82.090877
3908,SEMINOLE TRUCK STOP,"I-75, EXIT 354",Fort Lauderdale,FL,95,3.699,31.960952,-122.189037
3927,MICCOSUKEE SERVICE PLAZA,"I-75, EXIT 49 & SR-84",Fort Lauderdale,FL,95,3.66566666,45.40394,-96.731311
3936,Uncle Petes TruckStop,"I-40, EXIT 239 & US-70/SR-26",Lebanon,TN,460,2.989,29.639352,-94.300476
3946,Fast Lane,US-24 & US-63,Moberly,MO,310,3.469,47.878091,-123.830319
3949,SUNSTOP #337,"I-10/SR-8, EXIT 303 & US-441",Lake City,FL,75,3.699,35.741825,-85.77011
3956,CIRCLE K #2707451,US-27/SR-25 & SR-70,Lake Placid,FL,225,3.399,37.141512,-116.411307
3964,SPEEDWAY #6604,"I-94, EXIT 66",Mattawan,MI,465,3.489,44.990667,-70.072038
3964,SPEEDWAY #6604,"I-94, EXIT 66",Mattawan,MI,465,3.499,47.163234,-96.73762
3970,EXXON - Pilot #1293,"I-30, EXIT 61",Garland,TX,630,2.84233333,29.918058,-66.808689
3973,LOVES TRAVEL STOP #205,"I-35 & I-44, EXIT 137",Oklahoma City,OK,483,3.319,28.83744,-68.274884
3974,LOVES TRAVEL STOP #201,I-40 EXIT 41,Elk City,OK,483,3.12566666,40.453002,-88.688796
3975,SUNSTOP #334,"I-10, EXIT 335 & SR-121",Macclenny,FL,75,3.459,47.96477,-75.111189
3979,PETRO GARY 369,"I-80 & I-94, EXIT 9",Gary,IN,365,3.83066666,36.318336,-85.930642
4006,MISSILE MART #1,US-167 & SR-7,El Dorado,AR,635,3.499,36.874443,-112.67456
4008,BALDWIN TRAVEL PLAZA,"I-94, EXIT 19 & US HWY 63",Baldwin,WI,295,3.503,42.247174,-97.949366
4025,BP,"I-85, EXIT 21& US-178",Anderson,SC,30,2.909,41.041259,-72.794086
4035,PILOT TRAVEL CENTER #430,"I-40,EXIT 84",Russellville,AR,695,3.375,44.724456,-94.287698
4035,PILOT TRAVEL CENTERS #430,"I-40,EXIT 84",Russellville,AR,695,3.399,36.316159,-111.06821
4062,DUDLEYS TRUCK STOP RESTAURANT,US-220,Rocky Mount,VA,185,3.299,33.190735,-104.020427
4063,STUCKEY'S,"I-59, EXIT 67 & US-49",Hattiesburg,MS,620,2.999,34.153556,-93.951431
4080,SHELL DBA PILOT DEALER #874,US-41,Miami,FL,176,3.699,42.866829,-103.623163
4080,PILOT TRAVEL CENTERS #874,US-41,Miami,FL,176,3.699,47.845238,-106.336263
4101,E-Z MART #4411,HIGHWAY 69 & COBBLESTONE DR,Pryor,OK,560,3.099,29.145362,-76.073741
4113,ASAP GENERAL STORE #330,US-412/SR-15,Enid,OK,500,3.08233333,37.596504,-90.871064
4115,QUIKTRIP #707,"I-85 , EXIT 96",Atlanta,GA,18,3.34066666,36.126388,-120.102956
4119,JET FOOD STORE #82,US-441 & CR-13,Douglas,GA,10,3.44066666,43.956699,-82.606771
4156,PETRO STOPPING CENTER #305,"I-10, EXIT 582",San Antonio,TX,740,3.20733333,35.907351,-108.859853
4161,EL CHEAPO,I-95 & EXIT 76,Midway,GA,195,3.52566666,35.049282,-114.237096
4164,CIRCLE K #2723897,"I-75, EXIT 138",Thomasville,GA,20,3.23566666,35.602506,-72.382283
4169,TA KINGMAN TRAVEL CENTER,"I-40, EXIT 48 & US-93",Kingman,AZ,910,3.899,39.997855,-123.255503
4171,PETRO SERVE USA #11,US-2 & US-71,Bemidji,MN,355,3.499,42.99807,-74.374977
4172,FLYING J TRAVEL PLAZA #639,"I-90, EXIT 2",Post Falls,ID,970,3.76233333,45.796838,-88.405838
4179,CIRCLE K #2705352,"I-95/SR-405, EXIT 109 & SR-30/SR-21",Port Wentworth,GA,195,3.099,38.374666,-90.117269
4187,FLYING J TRAVEL PLAZA #632,"I-75, EXIT 320",Resaca,GA,285,3.29566666,29.4298,-77.095604
4193,TIGER MART #63,"I-20, EXIT 454",Grand Prairie,TX,630,3.599,36.617941,-120.676499
4199,PWI #574,"I-70, EXIT 193/US-40",Bunker Hill,KS,357,2.959,40.763499,-98.952157
4204,PILOT TRAVEL CENTERS #415,"I-59, EXIT 4",Rising Fawn,GA,285,3.859,46.040627,-110.748421
4204,PILOT TRAVEL CENTER #415,"I-59, EXIT 4",Rising Fawn,GA,285,3.819,41.505036,-84.569165
4211,FLYING J #513,"I-15, EXIT 1",Jean,NV,910,3.73233333,30.201707,-99.468938
4220,KENNETT TRUCK STOP,"I-275, EXIT 16",Lawrenceburg,IN,300,3.424,40.204309,-106.608142
4222,Circle K #4703906,"I-24, EXIT 24 & SR-49",Pleasant View,TN,460,2.899,38.410228,-106.563757
4223,TA PEMBROKE TRAVEL CENTER,"I-90, EXIT 48A",Corfu,NY,38,3.939,44.355892,-83.281796
4223,TA PEMBROKE TRAVEL CENTER,"I-90, EXIT 48A",Corfu,NY,38,3.889,46.770806,-107.843716
4223,TA PEMBROKE TRAVEL CENTER,"I-90, EXIT 48A",Corfu,NY,38,3.829,25.234913,-82.135789
4223,TA PEMBROKE TRAVEL CENTER,"I-90, EXIT 48A",Corfu,NY,38,3.839,33.254059,-67.573483
4227,LOVES TRAVEL STOP #203,"I-40, EXIT 140",Oklahoma City,OK,483,3.35566666,38.925393,-108.587613
4233,QUIKTRIP #7220,"I-20, EXIT 8",Shreveport,LA,745,2.89233333,27.008097,-83.646848
4239,SPEEDWAY #8256,"I-64, EXIT 94 & SR-1958 & US-60",Winchester,KY,410,2.92233333,43.671135,-87.711283
4241,EXXON,"I-285, EXIT 53",Conley,GA,18,3.999,33.440478,-70.911435
4267,CONOCO,US-30 & SR-41,Gap,PA,160,3.799,48.699122,-73.230471
4292,KUM & GO #0032,"I-80/US-6, EXIT 155 & SR-117",Colfax,IA,320,3.08233333,48.147432,-66.547014
4301,TIGER DISCOUNT TRUCKSTOP,"I-94, EXIT 64 & I-94 BUS",Dickinson,ND,807,3.51566666,40.570573,-94.051805
4311,Saveway Truck Plaza,"I-65, EXIT 164 & US-31",Hope Hull,AL,720,3.139,32.535662,-95.392207
4331,KWIK STOP C STORES,US-61/US-151,Dubuque,IA,335,3.559,37.214359,-75.963234
4332,PILOT TRAVEL CENTER #468,"I-57, EXIT 283 & US-24",Gilman,IL,280,3.399,26.726199,-87.427489
4332,PILOT TRAVEL CENTER #468,"I-57, EXIT 283 & US-24",Gilman,IL,280,3.559,38.896485,-102.778016
4332,PILOT TRAVEL CENTER #468,"I-57, EXIT 283 & US-24",Gilman,IL,280,3.439,37.288988,-121.545031
4332,PILOT TRAVEL CENTERS #468,"I-57, EXIT 283 & US-24",Gilman,IL,280,3.459,33.287556,-106.040096
4335,HIGHWAY 20AUTO TRUCK PLAZA,US-20,Peosta,IA,335,3.489,46.632196,-96.251045
4339,ROAD RANGER #273,I-69E/US-77 & SR-107,Combes,TX,639,3.049,32.78551,-89.441018
4349,ROAD RANGER #144,"I-380, EXIT 68US-20, EXIT 68",Evansdale,IA,565,3.729,26.779353,-97.668303
4363,EL CHEAPO #4,"I-95, EXIT 87",Richmond Hill,GA,195,3.09566666,27.327175,-83.10247
4368,HOODS SERVICE CENTER,"I-44, EXIT 61",Bois D Arc,MO,535,3.074,38.344129,-115.938799
4372,GRADYS TRUCKSTOP,"I-16, EXIT 111",Pulaski,GA,195,3.46566666,36.55391,-82.771989
4373,KUM & GO #0043,"I-35, EXIT 43 & SR-207/CRG76",New Virginia,IA,320,3.114,30.732719,-79.720074
4389,TAYLOR QUIK-PIK,"I-29, EXIT 75 & US-30",Missouri Valley,IA,486,3.399,45.418403,-91.974559
4395,BREAK TIME #3147,"I-55, EXIT 67 & US-62",Sikeston,MO,275,3.499,32.515859,-90.998722
4417,TA MORIARITY TRAVEL CENTER,"I-40, EXIT 194",Moriarty,NM,580,3.21733333,39.88935,-115.949718
4419,CASEYS #3081,"I-35, EXIT 92 & US-136",Bethany,MO,400,3.06066666,42.05987,-96.799969
4427,CASEYS #2654,"I-80/US-6, EXIT 93 & CR-P28",Stuart,IA,320,3.099,43.877545,-66.48524
4431,CASEYS #2653,"US-63 & US-30, EXIT 202",Toledo,IA,320,3.349,36.217646,-116.824271
4437,UNDERWOOD TRUCK STOP I 80,"I-80, EXIT 17",Underwood,IA,319,3.00066666,42.378423,-95.665413
4441,PILOT TRAVEL CENTERS #51,"I-81 BAILEYTON RD, EXIT 36",Greeneville,TN,405,3.56233333,30.099707,-123.862603
4442,Minuteman Food Mart #58,US-74/US-76,Delco,NC,245,3.50733333,46.980039,-108.013242
4445,TA Rogers,"I-94/US-52, EXIT 207 & SR-101",Rogers,MN,448,3.274,34.734412,-87.925246
4446,LOVES TRAVEL STOP #200,I-40 EXIT 74,Amarillo,TX,585,3.209,32.650687,-108.470513
4451,PRAIRIE JUNCTION TRUCK STOP,"I-29, EXIT 109 & SR-34",Colman,SD,530,3.099,32.53524,-96.321916
4452,CASEYS #2867,US-63 & US-20,Waterloo,IA,380,3.499,30.3422,-84.251187
4458,KUM & GO #1443,"I-80, EXIT 216",Williamsburg,IA,380,3.13066666,43.010647,-107.872335
4460,EXIT 62 TRUCKSTOP,"I-71, EXIT 62 & US-127",Glencoe,KY,415,3.16566666,35.329239,-76.339069
4463,QUIKTRIP #7901,"I-20, EXIT 556 & US-69",Lindale,TX,710,2.80733333,33.88544,-123.510374
4482,FLYING J TRAVEL PLAZA #777,"I-84, EXIT 54(FEDERAL WAY)",Boise,ID,785,3.809,28.837685,-119.91574
4482,FLYING J FUEL STOP #777,"I-84, EXIT 54(FEDERAL WAY)",Boise,ID,785,3.76566666,38.329328,-107.623894
4492,3 MILE CORNER TRUCK STOP,US-2 & US-95,Bonners Ferry,ID,970,3.734,45.527428,-82.814316
4525,STINKER #42,US-12/US-95 & SR-128,Lewiston,ID,970,3.69733333,27.689981,-92.29617
4528,WENATCHEE VALLEY TRUCK STOP,US-97 ALT,Wenatchee,WA,920,4.199,26.579287,-108.79879
4528,WENATCHEE VALLEY TRUCK STOP,US-97 ALT,Wenatchee,WA,920,4.119,29.457603,-75.601202
4528,WENATCHEE VALLEY TRUCK STOP,US-97 ALT,Wenatchee,WA,920,4.089,28.209086,-108.577749
4533,SPEEDWAY #1449,"I-65, EXIT 262B",Birmingham,AL,615,2.97566666,38.122522,-108.83705
4544,BIG CHARLIES TRUCK PLAZA,"I-64, EXIT 282 & US-13",Virginia Beach,VA,130,3.489,34.630472,-112.780904
4555,PILOT TRAVEL CENTERS #406,"I-65, EXIT 22 & US-31A/SR-11",Cornersville,TN,460,3.799,25.416762,-83.37074
4560,FAST STOP TRAVEL CENTERS #1109,"I-15, EXIT 392",Plymouth,UT,835,3.58233333,34.954008,-107.595069
4563,PILOT TRAVEL CENTERS #299,"I-55/I-74/US-51, EXIT 160 & US-150/SR-9",Bloomington,IL,280,3.599,27.182864,-85.580686
4563,PILOT TRAVEL CENTERS #299,"I-55/I-74/US-51, EXIT 160 & US-150/SR-9",Bloomington,IL,280,3.399,34.072723,-66.990312
4563,PILOT TRAVEL CENTER #299,"I-55/I-74/US-51, EXIT 160 & US-150/SR-9",Bloomington,IL,280,3.399,38.163745,-93.666833
4563,PILOT TRAVEL CENTERS #299,"I-55/I-74/US-51, EXIT 160 & US-150/SR-9",Bloomington,IL,280,3.499,36.254873,-92.193698
4563,PILOT TRAVEL CENTER #299,"I-55/I-74/US-51, EXIT 160 & US-150/SR-9",Bloomington,IL,280,3.499,27.658563,-120.630489
4563,PILOT TRAVEL CENTER #299,"I-55/I-74/US-51, EXIT 160 & US-150/SR-9",Bloomington,IL,280,3.599,25.991523,-120.093869
4568,ONVO TRAVEL PLAZA,"I-90, EXIT 28",Fultonville,NY,12,3.199,27.553002,-91.056442
4568,ONVO TRAVEL PLAZA,"I-90, EXIT 28",Fultonville,NY,12,3.159,31.144641,-98.154053
4569,METROPOLIS TRUCK STOP,"I-24, EXIT 37 & US-45",Metropolis,IL,490,3.599,40.577187,-90.619936
4574,Circle K #4701432,"I-74, EXIT 174",Mahomet,IL,280,3.669,29.91673,-75.721491
4582,BIG CHIEF TRUCK STOP,"I-94/US-52, EXIT 61 & US-59/CR-82",Fergus Falls,MN,250,3.23566666,46.687814,-84.493483
4605,PILOT DEALER #898 SADLERS TRUCK STOP,"I-95, EXIT 11B & US-58",Emporia,VA,180,3.799,41.994108,-79.585861
4618,OUTPOST TRAVEL CENTER,"I-20, EXIT 5 & US-80",Greenwood,LA,745,2.899,25.803818,-108.057673
4620,PILOT TRAVEL CENTERS #95,"I-75, EXIT 329 & SR-44",Wildwood,FL,225,3.22566666,47.783469,-99.894377
4620,PILOT TRAVEL CENTER #95,"I-75, EXIT 329 & SR-44",Wildwood,FL,225,3.319,43.202424,-68.366097
4622,TA LEE HI TRAVEL PLAZA,"I-81,EXIT 195",Lexington,VA,185,3.659,35.552204,-116.001915
4628,QUARLES #4601,US-29/US-17/US-15,Warrenton,VA,60,3.32233333,43.212775,-97.547984
4637,THORNTONS #369 DBA PILOT TRAVEL CENTER #514,"I-55, EXIT 126 & SR-10",Lincoln,IL,318,3.399,32.133094,-96.413399
4637,THORNTONS #369 DBA PILOT TRAVEL CENTER #514,"I-55, EXIT 126 & SR-10",Lincoln,IL,318,3.499,45.419219,-118.815239
4637,PILOT TRAVEL CENTER #514 - THORNTONS #369,"I-55, EXIT 126 & SR-10",Lincoln,IL,318,3.499,29.954921,-66.687818
4637,PILOT TRAVEL CENTER #514 - THORNTONS #369,"I-55, EXIT 126 & SR-10",Lincoln,IL,318,3.399,38.853172,-120.709901
4642,MARSHAL JUNCTION,"I-70, EXIT 147 & SR-1",Marshall,IL,510,3.199,26.899439,-78.828397
4642,MARSHAL JUNCTION,"I-70, EXIT 147 & SR-1",Marshall,IL,510,3.399,29.956534,-111.806443
4644,CIRCLE K #4706703,"I-80, EXIT 145A",Mokena,IL,290,3.399,27.531227,-89.219054
4644,CIRCLE K #4706703,"I-80, EXIT 145A",Mokena,IL,290,3.339,38.987525,-113.91902
4654,7-ELEVEN #35087,"I-490, EXIT 2 & SR-33 & SR-19",Bergen,NY,190,4.029,27.656837,-117.171043
4655,QUICKLEES TRAVEL CENTER,"I-86, EXIT 30 & CR-20",Belmont,NY,190,3.999,44.715158,-106.06132
4690,PWI #401,"I-20 & I-30, EXIT 1B",Aledo,TX,630,2.799,36.885784,-79.347116
4700,A C TRUCKSTOP,"I-80, EXIT 290",Laramie,WY,795,3.079,45.412569,-86.296378
4704,THE RIDGE,"I-68/US-219, EXIT 14 & US-40",Accident,MD,165,4.199,32.960674,-75.691798
4707,SMITHTON TRUCKSTOP,"I-70, EXIT 39 & SR-3059",Smithton,PA,165,3.899,40.478675,-110.792996
4729,MINIT MART #600244,"I-70, EXIT 131",Straughn,IN,457,3.859,45.931074,-90.147961
4742,FLYING J TRAVEL PLAZA #684,"I-94, EXIT 1 & SR-16",Beach,ND,807,3.96566666,25.914017,-116.388031
4750,BROOKE TRAVEL PLAZA,"I-80, EXIT 259",West Liberty,IA,380,2.98733333,31.706994,-80.218757
4762,TA MONROE TRAVEL CENTER,"I-75, EXIT 15",Monroe,MI,325,3.349,31.663225,-92.634279
4762,TA MONROE TRAVEL CENTER,"I-75, EXIT 15",Monroe,MI,325,3.249,38.374684,-88.345057
4762,TA MONROE TRAVEL CENTER,"I-75, EXIT 15",Monroe,MI,325,3.369,37.992767,-95.146513
4762,TA MONROE TRAVEL CENTER,"I-75, EXIT 15",Monroe,MI,325,3.299,47.027274,-85.218441
4806,TRACK AND TRAVEL,"I-20, EXIT 406",Weatherford,TX,630,2.91733333,31.872995,-67.300201
4818,PILOT TRAVEL CENTER #350,"I-84 & US-20, EXIT 95",Mountain Home,ID,785,3.799,45.697296,-105.469413
4818,PILOT TRAVEL CENTERS #350,"I-84 & US-20, EXIT 95",Mountain Home,ID,785,3.759,37.079606,-106.890831
4819,Alta Convenience #6333,"I-25, EXIT 11",Trinidad,CO,803,3.399,46.544703,-92.06405
4826,I-20 Truck Stop,"I-20, EXIT 165",Lincoln,AL,615,2.999,42.536735,-97.29151
4827,PETRO BEAUMONT #304,"I-10, EXIT 848",Beaumont,TX,610,3.33066666,29.504556,-68.997068
4837,SHELL,US-10 & SR-210,Motley,MN,522,3.399,27.385048,-112.313093
4856,PILOT TRAVEL CENTER #910- TOWN PUMP,"I-90, EXIT 274 & US-287",Three Forks,MT,786,3.59733333,46.833892,-67.418742
4858,PILOT TRAVEL CENTER #1346,"I-135, EXIT 31",Newton,KS,570,3.3115,40.469329,-117.030507
4858,PILOT DEALER #1346,"I-135, EXIT 31",Newton,KS,570,3.409,28.158189,-74.748189
4860,PILOT TRAVEL CENTER #476,"I-74, EXIT 32 & SR-17",Woodhull,IL,270,3.899,45.433329,-114.185992
4860,PILOT TRAVEL CENTERS #476,"I-74, EXIT 32 & SR-17",Woodhull,IL,270,3.899,34.508498,-73.01838
4872,TA COMMERCE TRAVEL CENTER,"I-85, EXIT 149 & US-441",Commerce,GA,16,3.21566666,45.722493,-82.182465
4874,PWI #110,"I-20, EXIT 112 & FM-1936",Odessa,TX,710,3.049,39.173681,-67.712908
4878,SHELL DBA ONE9 #1426,"I-84, EXIT 35",Nampa,ID,785,3.374,29.003581,-85.74513
4881,PETRO STOPPING CENTER #14,"I-295, EXIT 56",Bordentown,NJ,230,4.029,34.765072,-105.943281
4885,LOVES TRAVEL STOP #384,"I-70, EXIT 45",Greenville,IL,540,3.689,27.178752,-100.467098
4885,LOVES TRAVEL STOP #384,"I-70, EXIT 45",Greenville,IL,540,3.749,47.943214,-118.724297
4885,LOVES TRAVEL STOP #384,"I-70, EXIT 45",Greenville,IL,540,3.689,48.187496,-103.288394
4885,LOVES TRAVEL STOP #384,"I-70, EXIT 45",Greenville,IL,540,3.689,44.792372,-109.363615
4885,LOVES TRAVEL STOP #384,"I-70, EXIT 45",Greenville,IL,540,3.689,43.791299,-83.587902
4885,LOVES TRAVEL STOP #384,"I-70, EXIT 45",Greenville,IL,540,3.749,43.86224,-123.441686
4887,SUNOCO,"I-80 & I-90, EXIT 3",Wauseon,OH,550,3.699,42.761248,-113.561032
4894,CLOVERDALE TRAVEL PLAZA,"I-70, EXIT 41 & US-231",Cloverdale,IN,375,3.699,44.705816,-102.694441
4905,HY-MILER #2204,SR-250,Sandusky,OH,550,3.53233333,44.582469,-81.576172
4909,CIRCLE K #2723916,US-441/US-301/US/27/SR-500,Ocala,FL,140,3.459,46.056305,-85.33306
4910,PILOT TRAVEL CENTER #892,"I-70 EXIT 164, & US-50",Green River,UT,835,3.68566666,40.526487,-86.122259
4918,PILOT TRAVEL CENTERS #219,"I-40, EXIT 398",Knoxville,TN,405,3.699,43.483458,-89.249061
4920,TA LAPLACE,"I-10, EXIT 209 & US-5",La Place,LA,600,3.22733333,39.242028,-118.359673
4921,PILOT TRAVEL CENTERS #231,"I-75, EXIT 29",Corbin,KY,410,3.609,31.515941,-92.477446
4927,CIRCLE K #2704886,"I-65, EXIT 205 & US-31/SR-22",Clanton,AL,720,3.20733333,40.168169,-121.569817
4933,VILLAGE TRUCK STOP,"I-81, EXIT 18",Rural Retreat,VA,185,3.299,44.95294,-80.086788
4977,KWIK TRIP #331,SR-54,Wisconsin Rapids,WI,395,3.26233333,31.246517,-93.907642
4981,JOHNNYS MARKET,"I-94, EXIT 110 & US-27",Marshall,MI,385,3.499,47.551332,-93.097514
4983,KWIK TRIP #603,"I-94, EXIT 28 & SR-128",Wilson,WI,451,3.549,44.440799,-86.640173
4996,ZIP TRIP #54,"I-90, EXIT 452",Billings,MT,780,3.59066666,44.315758,-109.643781
5003,TRAILWAY TRUCK STOP,US-301/SR-304,Centreville,MD,22,3.259,34.146605,-99.966679
5006,SUNOCO,US-1/US-9,Linden,NJ,79,3.799,34.247378,-95.774392
5024,I 55 MOTOR PLAZA,"I-55,EXIT 180",Pevely,MO,540,2.99066666,42.493642,-80.520302
5030,YESWAY #1030,US-63 & E MARY ST,Ottumwa,IA,320,3.399,40.51959,-82.870762
5044,TA MOUNT VERNON TRAVEL CENTER,"I-44, EXIT 46 & SR-39/SR265",Mount Vernon,MO,535,3.409,27.418044,-73.683395
5050,ROCK PORT TRUCK PLAZA,"I-29 & US-136, EXIT 110",Rock Port,MO,400,3.099,40.32781,-112.412576
5056,TREX MART #16,"I-35, EXIT, 61 & US-69",Winston,MO,276,3.119,27.099256,-112.394379
5057,PHILLIPS 66,"I-35, EXIT 54 & I-35 BUS/US-36",Cameron,MO,276,3.099,42.464357,-111.918546
5060,CRAZY FREDS TRUCK SHOP,"I-40, EXIT 44 & US-66",Kingman,AZ,910,3.539,27.045597,-93.670946
5064,CLARK OIL #44,"I-59, EXIT 97",Laurel,MS,620,2.879,48.509576,-121.234638
5079,FASTLANE TAYLOR 63,US-61 & SR-6,Taylor,MO,494,3.01566666,46.774752,-121.221886
5085,K AN T TRUCKSTOP,"I-79, EXIT 137 & SR-310",Fairmont,WV,165,3.399,28.603515,-78.216292
5111,CIRCLE K #2723385,"I-59, EXIT 67 & US-49/SR-42",Hattiesburg,MS,620,3.149,32.698556,-74.405337
5117,CIRCLE K #4702361,"I-65, EXIT 130 & SR-334",Whitestown,IN,375,3.29233333,33.681898,-71.097834
5128,CASEYS #2769,"I-80, EXIT 220 & SR-149",Williamsburg,IA,380,3.14233333,43.871659,-69.056002
5131,TRAILS END TRUCK STOP,"I-29, EXIT 110 & US-136",Rock Port,MO,486,3.40566666,37.656984,-82.583193
5132,Travel Centers of America,"I-44, EXIT 208 & SR-19",Cuba,MO,574,3.26566666,35.942742,-101.344384
5160,FUEL MART #727,"I-70, EXIT 193",Quaker City,OH,249,3.16566666,32.837191,-72.822963
5163,Blue Sky #733,"US-78, EXIT 81 & SR-178",Belden,MS,742,2.939,37.649161,-68.543254
5165,ONE9 #046,"I-65, EXIT 6 & SR-100",Franklin,KY,415,3.08566666,27.824031,-74.652263
5167,SPEEDWAY #7575,"I-65, EXIT 255",Hobart,IN,290,3.63233333,42.232674,-72.584745
5170,FLYING J #516,"I-76, EXIT 161 & I-70",Breezewood,PA,14,5.099,27.226592,-111.362732
5183,PETRO STOPPING CENTER #74,I-95 & EXIT 106,Kenly,NC,205,3.709,42.538651,-121.260311
5191,NORTH POINT PLAZA,"I-90 & I-94, EXIT 115",Poynette,WI,420,3.17233333,42.648563,-77.139402
5202,Chevron #306185,US-30,Montpelier,ID,825,3.699,36.154135,-120.66534
5203,OASIS TRAVEL CENTER,"I-10, EXIT 53",Robertsdale,AL,715,3.469,38.183091,-77.186131
5207,JJ TRAVEL PLAZA,"I-70, EXIT 70 & US-83",Oakley,KS,525,3.61566666,31.361026,-107.594398
5227,PILOT TRAVEL CENTERS #900,"I-95, EXIT 75",Dunn,NC,205,3.709,29.795643,-103.950923
5230,ONE9 #496,"I-80, EXIT 265",Atalissa,IA,270,3.01566666,26.59013,-66.024207
5232,CM EUNICE,US-190,Eunice,LA,730,3.399,33.78719,-77.753245
5234,SINCLAIR,SR-37,Monett,MO,277,3.29066666,25.137504,-100.601921
5236,FLYING J #875,"I-95,EXIT 109",Elkton,MD,243,4.199,30.178497,-66.550882
5245,CASEYS #3842,US-36 & US-283,Norton,KS,357,3.15733333,29.965184,-70.245332
5247,EDGERTON TRAVEL PLAZA,"I-90, EXIT 160 & US-51",Edgerton,WI,420,3.199,27.870891,-105.14274
5249,Taylor's Stateline Travel Center,US-67 & SR-278,Neelyville,MO,275,2.999,47.869193,-87.458516
5254,TA CANDLER TRAVEL CENTER,"I-40, EXIT 37",Candler,NC,210,3.799,41.148858,-104.761623
5255,7-ELEVEN #35788,"I-35, EXIT 215",Olathe,KS,400,3.339,32.737964,-104.58325
5258,PT TRUCK STOP,"I-12, EXIT 42",Hammond,LA,623,3.249,47.321039,-82.538457
5282,CASEYS #3548,US-54 & US-61,Pratt,KS,357,3.14066666,46.737852,-70.350608
5285,TULLO TRUCK STOP,"I-95, EXIT 15E & US-1/US-9",Kearny,NJ,79,3.799,41.902965,-71.083731
5297,ERNIES TRUCK STOP,"I-90,EXIT 179 & I-90 BUS/SR-17",Moses Lake,WA,920,3.999,28.398175,-105.105089
5297,ERNIES TRUCK STOP,"I-90,EXIT 179 & I-90 BUS/SR-17",Moses Lake,WA,920,3.949,45.419469,-79.422374
5297,ERNIES TRUCK STOP,"I-90,EXIT 179 & I-90 BUS/SR-17",Moses Lake,WA,920,4.179,26.164079,-116.472485
5299,Sudden Service #62,"I-65, EXIT 6 & SR-100",Franklin,KY,460,3.084,36.63857,-100.385176
5302,ONE9 #258,"I-81, EXIT 150 & US-220 ALT & US-11",Troutville,VA,185,3.03233333,37.882496,-94.409578
5306,PILOT TRAVEL CENTERS #11,"I-76, EXIT 232",North Lima,OH,573,3.799,42.773435,-101.54306
5309,NEWBORN TRUCK STOP,I-20 EXIT 5,Tallapoosa,GA,48,3.40733333,28.474968,-110.943753
5310,FLYING J #576,"I-35, EXIT 69",Northfield,MN,515,3.859,27.953627,-69.499801
5324,HY-MILER #2245,SR-53,Fremont,OH,550,3.38233333,42.534039,-121.066193
5341,KWIK STAR #1160,"US-75, EXIT 118 & SR-3",Le Mars,IA,408,3.299,30.794801,-97.875574
5349,JET FOOD STORE #17,US-1/SR=4/SR-540 & US-220/SR-47,Wrens,GA,135,3.41566666,30.973892,-100.651069
5363,SPEEDWAY #6767,"I-75, EXIT 20",Manheim,PA,70,4.499,47.434426,-98.509364
5389,FLYING J TRAVEL PLAZA #744,"I-15, EXIT 343",Ogden,UT,835,3.749,40.457502,-103.200279
5391,PWI #605,"I-10, EXIT 378",San Simon,AZ,640,2.959,48.870807,-86.288928
5399,FLYING J TRAVEL PLAZA #750,"I-81 & I-77, EXIT 80",Max Meadows,VA,185,3.549,43.401747,-96.787488
5407,CASEYS #4535,US 81,Concordia,KS,570,2.91233333,28.858285,-89.982898
5414,One9 #1216,"I-10 ,EXIT 200 & SR-84",Eloy,AZ,930,3.199,41.881108,-102.292432
5414,Pride Travel Center dba One9 #1216,"I-10 ,EXIT 200 & SR-84",Eloy,AZ,930,3.199,35.210231,-110.645801
5419,USA TRAVEL CENTER,"I-40, EXIT 48 & US-93",Kingman,AZ,910,3.399,32.525739,-97.366459
5422,K AND H TRUCK PLAZA,"I-57, EXIT 283 & US-24",Gilman,IL,290,3.159,34.700526,-73.195215
5422,K AND H TRUCK PLAZA,"I-57, EXIT 283 & US-24",Gilman,IL,290,3.099,27.304143,-96.388964
5424,WK TRUCK STOP,"US-231 & SR-9001, EXIT 75",Beaver Dam,KY,340,3.399,40.655893,-100.006706
5435,MEADE AUTO AND TRUCK PLAZA,US-54,Meade,KS,525,3.799,27.447115,-103.937761
5436,PARKWAY MARATHON,"US-79, EXIT 94",Caneyville,KY,415,3.73233333,31.007976,-71.762702
5446,PETRO STOPPING CENTER #308,"I-20, EXIT 8 & SR-526",Shreveport,LA,745,3.17566666,27.563145,-79.401587
5462,BOOZER KWIK STOP,"I-15, EXIT 118",Idaho Falls,ID,825,3.44733333,27.445868,-78.793426
5464,PILOT TRAVEL CENTERS #48,"I-65, EXIT 86",Glendale,KY,415,3.609,42.468402,-102.154619
5474,One9 #88,"I-95/SR-9, EXIT 201 & SR-520",Cocoa,FL,143,3.37566666,43.937886,-93.329602
5477,CHEVRON #383766,"I-5, EXIT 216",Halsey,OR,935,3.099,29.427872,-69.402181
5479,PILOT TRAVEL CENTERS #94,"I-75, EXIT 161",Punta Gorda,FL,225,3.799,31.021784,-80.642382
5479,PILOT TRAVEL CENTER #94,"I-75, EXIT 161",Punta Gorda,FL,225,3.799,32.364046,-80.871478
5491,49ER FUEL CENTER,"I-75, EXIT 49",East Bernstadt,KY,410,2.999,42.782792,-109.116974
5492,BFS FOODS #68,"I-70, EXIT 3",Hancock,MD,22,4.129,28.16435,-102.915483
5522,ONE9 #301,"I-55,EXIT 40",Marston,MO,275,3.109,46.81508,-119.529035
5523,TA LIMON TRAVEL CENTER,"I-70, EXIT 359 & US-24",Limon,CO,800,3.92066666,31.685583,-77.49048
5529,FLYING J #549,"I-77, EXIT 100 & 101",Mount Airy,NC,65,3.599,45.716628,-113.159074
5537,HUCKS TRAVEL CENTER #51 DBA FLYING J #889,"I-57/I-64, EXIT 95 & SR-15",Mount Vernon,IL,574,3.459,30.013783,-69.402652
5537,HUCKS TRAVEL CENTER #51 dba FLYING J #889,"I-57/I-64, EXIT 95 & SR-15",Mount Vernon,IL,574,3.499,39.639538,-95.25975
5537,HUCKS TRAVEL CENTER #51 DBA FLYING J #889,"I-57/I-64, EXIT 95 & SR-15",Mount Vernon,IL,574,3.359,26.115436,-89.043992
5537,HUCKS TRAVEL CENTER #51 DBA FLYING J #889,"I-57/I-64, EXIT 95 & SR-15",Mount Vernon,IL,574,3.599,28.340553,-91.64722
5537,HUCKS TRAVEL CENTER #51 dba FLYING J #889,"I-57/I-64, EXIT 95 & SR-15",Mount Vernon,IL,574,3.399,35.364841,-119.248507
5554,Southfork TRUCK STOP,"I-30, EXIT 63 & SR-53",Gurdon,AR,635,3.459,26.602836,-110.873731
5560,MIDWAY TRAVEL PLAZA,I-70 EXIT 121 & US-40,Columbia,MO,310,3.539,27.684051,-109.841738
5569,TA EXPRESS NORWOOD #0450,US-60,Norwood,MO,535,3.449,25.200444,-120.141325
5570,PETRO STOPPING CENTER #310,"I-12, EXIT 40 & US-51 BUS",Hammond,LA,725,3.249,32.620202,-95.634736
5579,SAPP BROS TRAVEL CENTER,US-30,Columbus,NE,486,3.219,26.833759,-95.731674
5592,TA COLUMBIA NORTH,"I-20, EXIT 71 & US-21",Columbia,SC,46,3.439,36.219734,-87.844788
5597,CM LAKE CHARLES FUEL STOP 36,"I-10, EXIT 36 & SR-397",Lake Charles,LA,690,3.299,41.034331,-110.205409
5601,BP,"I-24, EXIT 16",Paducah,KY,490,3.429,27.297553,-118.046084
5603,TA NORTH CANTON TRAVEL CENTER,"I-77, EXIT 111",North Canton,OH,249,3.624,44.798933,-94.962169
5606,FLYING J #511,"I-94, EXIT 147",Mandan,ND,273,3.95233333,44.307666,-118.667917
5607,RICE MART,"I-45 & FM 1603, EXIT 238",Rice,TX,630,3.019,45.371104,-79.216124
5608,SHOP A LOTT#3,US-84 & US-171,Mansfield,LA,766,3.13566666,35.39448,-106.205368
5613,CHEVRON #381108,"I-82, EXIT 36",Yakima,WA,925,3.999,30.12644,-120.837636
5618,MCCLURE OIL #52,"I-65/US-52, EXIT 140 & SR-32",Lebanon,IN,375,3.584,37.21509,-111.339221
5649,Fast Stop,"I-10, EXIT 182 & SR-22",Sorrento,LA,623,3.699,27.091627,-85.981646
5651,LOVES TRAVEL STOP #303,"I-64, EXIT 43 & SR-395",Waddy,KY,415,3.749,33.193752,-85.38491
5659,TEX-BEST #526,US-59 & US-281,George West,TX,625,3.299,46.419988,-67.667674
5660,Pride Convenience Store,"I-90, EXIT 51 & I-291",Chicopee,MA,100,3.509,37.43089,-117.807516
5661,TA Express #287,"I-40, EXIT 288 & SR-111",Cookeville,TN,460,3.299,42.846091,-66.719219
5667,PILOT TRAVEL CENTERS #393,"I-40, EXIT 24 & SR-209",Waynesville,NC,210,3.759,31.935501,-81.04344
5669,KWIK TRIP #497,I-90 EXIT 266 & CR-12,Dakota,MN,515,3.474,43.09592,-67.140253
5670,TA MOUNT VERNON TRAVEL CENTER,"I-57 & I-64, EXIT 95",Mount Vernon,IL,574,3.449,32.755647,-75.349191
5670,TA MOUNT VERNON TRAVEL CENTER,"I-57 & I-64, EXIT 95",Mount Vernon,IL,574,3.499,35.353633,-66.52175
5670,TA MOUNT VERNON TRAVEL CENTER,"I-57 & I-64, EXIT 95",Mount Vernon,IL,574,3.539,39.727663,-103.66106
5674,TA MADISON TRAVEL CENTER,"I-20, EXIT 114 & US-441",Madison,GA,16,3.89066666,43.456196,-122.302855
5677,YESWAY #1178,CR-13,Kadoka,SD,506,3.189,47.820496,-110.757799
5691,Pilot Travel Center #666,"I-94, EXIT 30",Benton Harbor,MI,465,3.059,36.406271,-106.852223
5700,BEACON & BRIDGE #18,US-131 BUS,Big Rapids,MI,456,3.559,46.430208,-120.381746
5700,BEACON & BRIDGE #18,US-131 BUS,Big Rapids,MI,456,3.319,39.85841,-118.165432
5700,BEACON & BRIDGE #18,US-131 BUS,Big Rapids,MI,456,3.339,44.77278,-79.579248
5718,TOOT N TOTUM #104,US-287,Dalhart,TX,585,3.199,33.904274,-83.242071
5721,TA BALTIMORE SOUTH TRAVEL CENTER,"I-95, EXIT 41A & SR-175 & US-1",Jessup,MD,22,4.599,46.733162,-111.293404
5729,MENOMONIE FARMERS UNION,"I-94, EXIT 45 & CR-B",Menomonie,WI,295,3.649,25.063684,-102.074591
5730,SCOTTS QUICK STOP,SR-53 & SR-46,Marlette,MI,342,3.399,45.746784,-110.573543
5739,PILOT TRAVEL CENTERS #284,"I-75, EXIT 18",Monroe,MI,325,3.399,32.68554,-92.163006
5739,PILOT TRAVEL CENTERS #284,"I-75, EXIT 18",Monroe,MI,325,3.299,48.805636,-78.17008
5739,PILOT TRAVEL CENTERS #284,"I-75, EXIT 18",Monroe,MI,325,3.559,43.856691,-78.752643
5739,PILOT TRAVEL CENTERS #284,"I-75, EXIT 18",Monroe,MI,325,3.249,26.706752,-114.329765
5739,PILOT TRAVEL CENTERS #284,"I-75, EXIT 18",Monroe,MI,325,3.439,41.941093,-105.082174
5751,TA LAKE PARK TRAVEL CENTER,"I-75,EXIT 2",Lake Park,GA,20,3.31566666,38.090857,-71.964384
5754,ROAD TRIP OASIS PERRY,"I-69, EXIT 105 & SR-52",Perry,MI,406,3.799,41.415385,-111.975063
5754,ROAD TRIP OASIS PERRY,"I-69, EXIT 105 & SR-52",Perry,MI,406,3.699,34.273005,-97.835231
5758,SPEEDY Q MARKET #8206,"I-94, EXIT 274",Port Huron,MI,325,3.899,40.300901,-99.674524
5770,Kwik Trip # 1281,"I-43, EXIT 107",Belgium,WI,444,3.25566666,39.046642,-82.384388
5771,DUNES AUTO TRUCK PLAZA,"I-94, EXIT 12",Sawyer,MI,465,3.499,31.652158,-113.772644
5771,DUNES AUTO TRUCK PLAZA,"I-94, EXIT 12",Sawyer,MI,465,3.599,25.349784,-66.86811
5774,PJ TRAVEL PLAZA,"I-80, EXIT 192 & SR-880",Loganton,PA,138,3.479,40.183632,-106.488952
5780,BILLS TRUCKSTOP,"I-85, EXIT 86",Linwood,NC,65,3.449,28.684863,-84.456293
5799,STAPLES OIL,"I-90, EXIT 146",Alden,MN,425,3.299,44.418469,-107.033799
5801,TA WYTHEVILLE TRAVEL CENTER,"I-81, EXIT 72 & I-77, EXIT 41",Wytheville,VA,185,3.519,47.286392,-104.345437
5821,TA PORTLAND TRAVEL CENTER,"I-5,EXIT 278",Aurora,OR,935,4.03233333,36.013289,-121.826731
5823,ENMARKET #863,"I-95, EXIT 8 & SR-88",Hardeeville,SC,195,3.08233333,40.298953,-122.750023
5830,115 TRUCKSTOP #5001,"I-94, EXIT 115",Marshall,MI,431,3.429,34.387081,-104.261636
5830,115 TRUCKSTOP #5001,"I-94, EXIT 115",Marshall,MI,431,3.499,25.168153,-119.890405
5830,115 TRUCKSTOP #5001,"I-94, EXIT 115",Marshall,MI,431,3.589,45.679179,-122.182902
5842,PETRO STOPPING CENTER #6367,"I-57,EXIT 335",Monee,IL,290,3.459,44.025604,-75.963697
5842,PETRO STOPPING CENTER #6367,"I-57,EXIT 335",Monee,IL,290,3.499,46.979248,-99.563668
5842,PETRO STOPPING CENTER #6367,"I-57,EXIT 335",Monee,IL,290,3.399,36.414058,-73.504067
5860,SPEEDWAY #4610,"I-35, EXIT 59 & SR-21",Faribault,MN,448,3.759,36.087194,-90.95329
5873,SOUTHERN VALLEY COOP,ST 14 BYPASS,Mankato,MN,425,3.499,37.361435,-85.046607
5901,ROTHSAY TRUCK STOP,"I-94, EXIT 38",Rothsay,MN,341,3.209,32.176023,-74.184753
5903,Circle K #2746447,I-94/US-52 EXIT 127 & US-71/SR-28,Sauk Centre,MN,250,3.189,28.055641,-93.130489
5907,SPEEDWAY #4035,CR-101,Shakopee,MN,448,3.599,26.647054,-89.834501
5909,SINCLAIR,"I-90, EXIT 233",Saint Charles,MN,515,3.529,40.657666,-93.329092
5927,HARRISONBURG TRAVEL CENTER,"I-81,EXIT 243 & US-11",Harrisonburg,VA,185,2.899,47.874117,-85.927392
5935,WESTHAMPTON VALERO,I-295 EXIT 47A,Mount Holly,NJ,160,3.329,43.436737,-70.957311
5942,EXPRESS MART TRUCK STOP,"I-55, EXIT 185 & US-67/US-61",Barnhart,MO,540,2.99733333,34.87245,-92.260116
5944,LAKE MILLS TRAVEL PLAZA,"I-94, EXIT 259 & SR- 89/CR-G",Lake Mills,WI,420,3.36066666,39.282408,-93.36986
5946,PILOT TRAVEL CENTERS #918,I-90 EXIT 55,Rapid City,SD,506,3.999,32.285122,-120.813129
5949,EXXON,US-59 & LOOP 151,Texarkana,TX,723,3.16566666,39.933714,-75.02873
5951,ROAD RANGER #157,I-64 EXIT 41,Okawville,IL,540,3.799,38.331574,-110.134896
5963,OZONA ONE STOP,"I-10, EXIT 372",Ozona,TX,710,2.98233333,34.060278,-91.548937
5965,TRUCK TOWNE,I-29 EXIT 47 & SR-46,Beresford,SD,572,3.159,45.876008,-101.91081
5971,WACO TRAVEL CENTER,SR-19,Perry,FL,20,3.699,32.670377,-78.427512
5979,TA LAFAYETTE TRAVEL CENTER,"I-10 & SR-182, EXIT 101",Lafayette,LA,600,3.134,36.877455,-112.186015
5980,THRIFT MART TRUCK PLAZA,"I-85/US-460, EXIT 63A & US-1/US-460 BUS",Petersburg,VA,180,3.199,28.520361,-112.348659
5990,360 TRUCK STOP,US-360,Amelia Court House,VA,180,3.599,30.996019,-70.55641
5996,Fast Stop Travel Centers #1134,"I-80/US-30, EXIT 99 & US-191/SR-373",Rock Springs,WY,827,3.499,38.052588,-120.351175
5999,PILOT TRAVEL STOP #492,"I-30, EXIT 78 & SR-7",Arkadelphia,AR,635,3.559,33.721251,-79.883281
5999,PILOT TRAVEL CENTER #492,"I-30, EXIT 78 & SR-7",Arkadelphia,AR,635,3.499,43.609856,-113.983008
6001,ALLSUPS #2392,US-70 & US-285,Roswell,NM,700,3.199,39.226525,-96.745501
6009,CASEYS #2652,US-65 & US-36,Chillicothe,MO,400,3.289,27.053971,-77.811759
6010,SEGOVIA TRUCK STOP,"I-10, EXIT 465",Junction,TX,739,2.999,32.591321,-72.009742
6018,TA BLOOMINGTON TRAVEL CENTER,"I-55, I-74 & I-39 , EXIT 160",Bloomington,IL,280,3.619,36.215261,-66.195148
6018,TA BLOOMINGTON TRAVEL CENTER,"I-55, I-74 & I-39 , EXIT 160",Bloomington,IL,280,3.649,31.245453,-66.698562
6018,TA BLOOMINGTON TRAVEL CENTER,"I-55, I-74 & I-39 , EXIT 160",Bloomington,IL,280,3.599,36.86602,-107.454761
6018,TA BLOOMINGTON TRAVEL CENTER,"I-55, I-74 & I-39 , EXIT 160",Bloomington,IL,280,3.449,47.174033,-79.374078
6018,TA BLOOMINGTON TRAVEL CENTER,"I-55, I-74 & I-39 , EXIT 160",Bloomington,IL,280,3.539,27.093147,-122.488739
6033,EMERY'S,US-54,Deerfield,MO,277,3.349,35.606633,-101.659436
6037,CRYSTAL OIL,"I-129/US-20/US-75,EXIT 2",South Sioux City,NE,527,3.549,43.490648,-112.177602
6041,COCKERHAM FUEL CENTER #4,"I-77, EXIT 14 & US-58/US-221",Hillsville,VA,185,3.28233333,28.63725,-109.45791
6047,FAST LANE #26,US-61,Eolia,MO,494,3.099,29.491578,-80.130738
6051,CIRCLE K #2709846,"I-25, EXIT 240",Longmont,CO,800,3.05733333,44.903231,-86.063046
6057,PILOT TRAVEL CENTER #903,"I-70/US-40, EXIT 252",Salina,KS,523,3.759,28.83667,-107.930853
6057,PILOT TRAVEL CENTERS #903,"I-70/US-40, EXIT 252",Salina,KS,523,3.779,43.047106,-82.467881
6058,MOTOR INN AUTO TRUCK STOP,I-75 EXIT 110,Mendon,OH,370,3.199,35.896746,-119.265991
6068,AYERCO #24,US-61 & CR MM,Hannibal,MO,494,3.099,35.577433,-72.186592
6082,Palmetto Truck Plaza,US-27/SR-25 & SR-826,Hialeah,FL,95,3.399,42.484678,-85.344161
6083,BP,"I-35, EXIT 33",Holt,MO,400,3.049,34.116997,-96.274537
6087,BREAK TIME #3173,US-54 & CR-HH,Fulton,MO,310,3.299,42.537169,-71.642382
6093,ONE9 #901,"I-80 & US-183, EXIT 257",Elm Creek,NE,330,2.96566666,27.928332,-90.166646
6096,Waverly Travel Center,US-23,Waverly,OH,315,3.41566666,47.968821,-98.345937
6097,SAPP BROS TRAVEL CENTER,"I-80, EXIT 263",Elm Creek,NE,330,3.18733333,47.818516,-112.969424
6106,TA HUNTINGTON,"I-84, EXIT 353",Huntington,OR,982,3.639,35.861701,-106.605904
6111,HAWGS EXXON,US-167/SR-25,Batesville,AR,418,3.359,39.723806,-113.836428
6150,CIRCLE K #2723707,"I-81,EXIT 150",Troutville,VA,65,3.06566666,35.69231,-100.615351
6154,TA MOBILE TRAVEL CENTER,"I-10,EXIT 4",Grand Bay,AL,715,3.13566666,34.062187,-66.426566
6164,PILOT TRAVEL CENTER #268,"I-80/US-6, EXIT 284",Walcott,IA,270,3.859,26.115912,-70.912211
6164,PILOT TRAVEL CENTERS #268,"I-80/US-6, EXIT 284",Walcott,IA,270,3.88566666,26.469458,-119.992354
6165,TEMP STOP #117,I-70 & GRAIN VALLEY RD EXIT 24,Grain Valley,MO,400,2.959,46.618924,-121.184021
6167,PILOT TRAVEL CENTERS #167,US-71,Nevada,MO,277,3.49566666,28.857103,-106.921823
6172,SPEEDWAY #2319,"I-96, EXIT 77",Portland,MI,431,3.699,42.721017,-120.916808
6172,SPEEDWAY #2319,"I-96, EXIT 77",Portland,MI,431,3.549,27.090172,-116.514796
6173,PILOT TRAVEL CENTERS #21,"I-94, EXIT 167",Dexter,MI,325,3.659,37.843283,-79.350409
6173,PILOT TRAVEL CENTERS #21,"I-94, EXIT 167",Dexter,MI,325,3.599,38.157145,-101.531234
6173,PILOT TRAVEL CENTERS #21,"I-94, EXIT 167",Dexter,MI,325,3.579,25.82249,-119.59104
6173,PILOT TRAVEL CENTERS #21,"I-94, EXIT 167",Dexter,MI,325,3.649,35.102859,-115.91488
6175,ONVO TRAVEL PLAZA - MIFFLINTOWN,US-322/US-22 & SR-35,Mifflintown,PA,138,3.479,25.932724,-71.23552
6179,HENDERSON TRAVEL PLAZA,"I-10, EXIT 115 & SR-347",Breaux Bridge,LA,690,3.38566666,48.734028,-119.978917
6180,Circle #4703923,"I-24, EXIT 180B & US-27",Chattanooga,TN,285,2.78566666,37.155921,-114.291769
6182,Exxon,"I-20, EXIT 205 & SR-46",Heflin,AL,587,3.01566666,29.512553,-85.020482
6188,SIGNAL FOOD STORE #112,US-65 & SR-J,Ozark,MO,535,2.999,33.389315,-105.585708
6198,DAVIS TRAVEL CENTER #102,"I-95/US-301, EXIT 33 & SR-602",Stony Creek,VA,180,3.06566666,42.163816,-83.74965
6200,KWIK FILL #388,"I-80, EXIT 29 & SR-8",Harrisville,PA,165,3.404,30.255061,-116.852764
6206,PETRO PORTAGE,"I-90 & I-94, EXIT 108-A",Portage,WI,420,3.80733333,44.609234,-83.064547
6212,MR FUEL,"I-55, EXIT 180",Pevely,MO,540,3.01566666,47.913406,-89.856741
6214,PIONEER Travel Plaza,"I-41, EXIT 60 & SR-145",Richfield,WI,444,3.21566666,35.0574,-92.876751
6215,FUEL HUB,"I-87, EXIT 21B",West Coxsackie,NY,12,3.599,42.986223,-83.448466
6218,LOVES TRAVEL STOP #215,"I-40, EXIT 16 & US-40 BUS/US-66",Gallup,NM,580,3.43733333,30.087995,-87.293086
6219,SCHATZ CROSSROADS,US-2 /US-52,Minot,ND,452,3.549,42.033774,-77.507931
6221,LOVES TRAVEL STOP #214,I-10 EXIT 37,El Paso,TX,640,3.07566666,36.02622,-121.099726
6222,QUIKTRIP #236,"I-29/US-71, EXIT 18 & SR-92",Platte City,MO,400,2.999,35.438989,-87.337095
6227,MARLOWS FUEL CENTER,"I-20, EXIT 479",Dallas,TX,630,3.24066666,39.14451,-108.468851
6229,FUEL MART #764,"I-70, EXIT 66 & SR- 54",South Vienna,OH,315,3.129,42.271956,-84.190489
6232,OASIS TRUCK STOP,"I-44 & SR-133, MM 145",Richland,MO,416,3.324,35.058811,-101.159642
6242,TA FORISTELL TRAVEL CENTER,"I-70, EXIT 203",Foristell,MO,540,3.019,45.482877,-69.374833
6243,GARDEN INN TRAVEL PLAZA,US-60/US-63,Cabool,MO,535,3.299,35.767249,-68.319339
6251,BREAUX BRIDGE VALERO #1408,"I-10 & SR-347, EXIT 115",Breaux Bridge,LA,730,3.499,42.387657,-119.768927
6252,PILOT TRAVEL CENTERS #12,I-80 & I-90 EXIT 71,Perrysburg,OH,550,3.759,42.346161,-96.447894
6258,CASEYS #6342,"I-29, EXIT 144 & US-169",Saint Joseph,MO,400,3.169,31.843703,-113.175214
6271,TA DENTON TRAVEL CENTER,"I-35, EXIT 471 & US-77",Denton,TX,630,3.254,26.386337,-99.988423
6275,TA SEATTLE EAST TRAVEL CENTER,"I-90, EXIT 34",North Bend,WA,962,3.959,44.149638,-93.995081
6275,TA SEATTLE EAST TRAVEL CENTER,"I-90, EXIT 34",North Bend,WA,962,3.899,45.613679,-87.162776
6275,TA SEATTLE EAST TRAVEL CENTER,"I-90, EXIT 34",North Bend,WA,962,3.859,46.785114,-77.832858
6284,7-ELEVEN #40513,I-90/80-IN TOLL RD MM 22W,Portage,IN,365,3.999,43.152017,-111.687022
6286,APPLE MARKET #526,"I-64, EXIT 94",Winchester,KY,410,2.91566666,46.026501,-83.986997
6290,FUEL KING NAPOLEON TRAVEL CENTER,"US-6/US-24/SR/CR-3, EXIT 41",Napoleon,OH,550,3.439,31.989918,-93.618625
6293,PETRO STOPPING CENTER #313,"I-40, EXIT 79",Milan,NM,580,3.57066666,40.334904,-68.327475
6296,GRAY TRUCK STOP,US-71/US-136,Maryville,MO,400,3.26566666,31.991202,-69.43658
6299,HWY 34 TRUCKSTOP,"US-34, EXIT 258",West Burlington,IA,345,3.374,36.365967,-119.424695
6305,I-95 Fuel Stop,"I-95, EXIT 126 & US-17/US-1",Fredericksburg,VA,180,3.264,38.31058,-113.772646
6307,QUIKTRIP #608,"I-70, MID RIVERS MALL",Saint Peters,MO,540,2.904,40.443264,-86.659979
6308,Pilot Travel Centers #354,"I-64, EXIT 28",Simpsonville,KY,415,3.759,34.144635,-82.677687
6309,WINNERS CIRCLE #1,"I-30 & US-270, EXIT 98A",Malvern,AR,695,3.35233333,42.189056,-76.175851
6310,CIRCLE K #2707515,US-27/SR-25 & US-98/US-700/SR-700/SR-66,Sebring,FL,140,3.389,43.027515,-102.032505
6315,AYERCO #25,US-24,Taylor,MO,494,3.01566666,41.824741,-70.27765
6318,Chisholm Corner #15,"I-35, EXIT 72 & US-19",Pauls Valley,OK,569,3.38733333,34.249684,-91.628972
6326,KANZA TRAVEL PLAZA,"I-35, EXIT 231 AND US-177",Braman,OK,500,3.02733333,46.00245,-121.064588
6327,PETRO STOPPING CENTER #312,"I-40 & I-75, EXIT 369",Knoxville,TN,405,3.42566666,45.087815,-113.594237
6330,TA EDINBURG TRAVEL CENTER,I-69C/US-281 & FM-2812,Edinburg,TX,639,3.01066666,34.531371,-80.160024
6334,231 PLAZA AND TRUCK STOP,US-231/SR-75 & SR-20,Youngstown,FL,20,3.494,41.605048,-121.271772
6341,TA RAWLINS TRAVEL CENTER,"I-80, EXIT 214",Rawlins,WY,795,3.72233333,47.511193,-89.959011
6346,SPEEDWAY #4710,US-71/SR-60,Windom,MN,425,3.299,25.458245,-78.905813
6351,FLYING J TRAVEL PLAZA #608,"I-10, EXIT 1",Ehrenberg,AZ,930,3.959,40.02335,-67.434238
6356,CIRCLE K #2721536,ST 6 EAST,Batesville,MS,435,3.24066666,38.131112,-85.136099
6370,TA ROCKWALL TRAVEL CENTER,"I-30/US-67, EXIT 68 & SR-205",Rockwall,TX,630,3.13733333,39.053819,-122.542088
6374,TA ELGIN WEST TRAVEL CENTER,I-90 &US-20,Hampshire,IL,290,3.459,25.914645,-108.653017
6374,TA ELGIN WEST TRAVEL CENTER,I-90 &US-20,Hampshire,IL,290,3.539,45.822054,-108.173761
6374,TA ELGIN WEST TRAVEL CENTER,I-90 &US-20,Hampshire,IL,290,3.599,35.616061,-74.415199
6374,TA ELGIN WEST TRAVEL CENTER,I-90 &US-20,Hampshire,IL,290,3.499,42.836557,-83.307937
6374,TA ELGIN WEST TRAVEL CENTER,I-90 &US-20,Hampshire,IL,290,3.469,33.399786,-104.26537
6387,FLYING J FRANCHISE #966,"I-80, EXIT 229",Battle Mountain,NV,966,3.79233333,34.185339,-121.109618
6391,TOOT N TOTUM #106,US-287,Dumas,TX,585,3.00566666,28.171375,-77.914099
6393,PILOT TRAVEL CENTER #478,"I-64, EXIT 92",Leavenworth,IN,415,3.959,32.942265,-115.563639
6393,PILOT TRAVEL CENTERS #478,"I-64, EXIT 92",Leavenworth,IN,415,3.959,33.056167,-77.35488
6401,CIRCLE K #2723457,"I-10, EXIT 34-B",Gulfport,MS,715,2.989,37.438122,-95.79065
6434,AMPRIDE ALL ROUND TRUCK STOP,US-20,Fort Dodge,IA,343,3.299,27.799155,-104.511731
6441,GRAND OIL,"I-75, EXIT 41 & SR-80",London,KY,410,3.499,25.31798,-106.938049
6442,CLARK OIL #49,US-84,Laurel,MS,620,2.999,47.520458,-88.041452
6448,CIRCLE K #2723392,"I-59, EXIT 97 & US-84",Laurel,MS,620,2.95233333,29.712209,-93.534927
6462,ARCO #471770,US-281 & SR-5,Dunseith,ND,452,3.499,48.2256,-80.91244
6468,TA SAYRE TRAVEL CENTER,"I-40 & CEMETARY RD, EXIT 26",Sayre,OK,483,3.064,26.775405,-86.944827
6480,FLYING J #934,"I-84, EXIT 265",La Grande,OR,982,3.53566666,39.853856,-117.363426
6492,FLICKS,US-49,Richland,MS,760,2.999,39.874959,-113.449073
6496,SPEEDY EXPRESS #38,"I-35, EXIT 305",Mathis,TX,625,3.199,41.858977,-116.495178
6502,SQUAW CREEK TRAVEL PLAZA,"I-29, EXIT 79 & US-159",Forest City,MO,400,3.339,47.838846,-104.195612
6517,HARDYS #5,"I-80, EXIT 44",Wendover,UT,835,3.499,38.191679,-108.157118
6518,TOWN PUMP FOOD STORE #310,"I-15, EXIT 164",Boulder,MT,816,3.559,42.196021,-68.919744
6526,TULIP CITY TRUCK STOP,"I-196 & SR-40, EXIT 49",Holland,MI,344,3.739,31.176662,-91.948884
6527,ZIP TRIP #50,"I-90, EXIT 426",Park City,MT,780,3.584,35.434916,-105.307782
6547,FLYING J TRAVEL PLAZA #762,"I-90, EXIT 126 & SR-59",Gillette,WY,836,3.899,47.324318,-83.836552
6562,PILOT #1323,"I-29, EXIT 35",Faucett,MO,400,3.27233333,43.028896,-112.161057
6563,Road Ranger #282,"I-35, EXIT 500",Gainesville,TX,630,3.17566666,39.419799,-101.797018
6564,FLYING J FRANCHISE #970,US-395,Pasco,WA,925,4.599,29.284978,-90.412437
6565,TA Greeneville Travel Center,"I-81,EXIT 36",Greeneville,TN,405,3.55233333,38.569015,-72.854608
6567,YELLOWSTONE TRUCK SHOP,"I-90, EXIT 330",Livingston,MT,786,3.649,33.018754,-71.293479
6577,AC & T TRAVEL CENTER,"I-81, EXIT 5 W",Hagerstown,MD,70,3.659,26.23226,-105.123068
6578,PILOT TRAVEL CENTER #909- TOWN PUMP,"I-15 & US-2, EXIT 363",Shelby,MT,815,3.63566666,48.407991,-72.905044
6588,TOWN PUMP FOOD STORE #4300,"I-90, EXIT 249",Whitehall,MT,786,3.659,26.314213,-88.172512
6593,LITTLE AMERICA TRAVEL CENTER,"I-40, EXIT 198",Flagstaff,AZ,930,3.539,37.597089,-67.840132
6607,TRANSIT TRUCK STOP,"I-97, EXIT 10",Millersville,MD,22,3.46566666,46.754883,-106.431511
6608,7-ELEVEN #35560,SR-16,Charlotte,NC,46,3.999,46.756607,-101.788371
6628,FLYING J TRAVEL PLAZA #682,"I-85, EXIT 150",Haw River,NC,65,3.94233333,32.873044,-85.734319
6632,TA SAVANNAH TRAVEL CENTER,"I-95/SR-405,EXIT 87 & US-17/SR-25",Richmond Hill,GA,195,3.35066666,28.873911,-71.265059
6633,BAKER TRUCK CORRAL,"I-84, EXIT 304",Baker City,OR,982,3.42566666,46.324191,-83.252194
6640,PETRO STOPPING CENTER JOHNSTOWN,"I-25, EXIT 254",Johnstown,CO,800,3.42733333,31.418656,-115.741007
6642,TA VERO BEACH TRAVEL CENTER #197,"I-95/SR-9, EXIT 147 & SR-60",Vero Beach,FL,95,3.484,46.719078,-88.520529
6646,FAMILY EXPRESS #35 (DISCOUNT AVAILABLE),"I-65, EXIT 215 & SR-114",Rensselaer,IN,365,3.13233333,35.762594,-71.774645
6655,BP DBA TA ELKTON TRAVEL CENTER,"I-95,EXIT 109B",Elkton,MD,150,4.969,31.239889,-81.816977
6659,GURNEE TRUCK STOP,US-41,Gurnee,IL,290,3.289,42.151231,-118.660499
6659,GURNEE TRUCK STOP,US-41,Gurnee,IL,290,3.379,31.608978,-121.409271
6661,TA FRANKLIN TRAVEL CENTER,"I-65, EXIT 61",Franklin,TN,460,3.839,28.166891,-119.422458
6663,TA of Mocksville,"I-40, EXIT 170 & US-601",Mocksville,NC,46,3.699,39.718989,-66.437686
6677,ROADWAY TRAVEL CENTER,"I-29, EXIT 73",Sioux Falls,SD,530,3.199,35.274277,-96.583105
6693,SAPP BROS TRAVEL CENTER,US-77,Fremont,NE,486,3.34566666,26.241618,-88.369733
6701,JACKS TRUCK STOP,"I-65, EXIT 304 & SR-69",Cullman,AL,615,3.999,43.805171,-79.970453
6704,FL Roberts,"I-91, EXIT 24",Whately,MA,100,3.559,44.486839,-68.569691
6716,MARATHON,"I-29/US-81, EXIT 65 & I-94 BUS/US-10",Fargo,ND,341,3.449,31.950544,-67.24867
6721,STAMART 1222,"I-29, EXIT 64",Fargo,ND,341,3.38566666,43.067697,-98.751111
6725,TA EXPRESS GRAND FORKS #948,"I-29, EXIT 141 & US-2",Grand Forks,ND,355,3.539,48.494241,-91.213862
6734,TOMAHAWK TRUCK STOP,"I-25, EXIT 128",Fountain,CO,803,3.299,42.513702,-120.429161
6736,EAGLEVILLE TRAVEL CENTER,"I-35 & ROUTE N, EXIT 106",Eagleville,MO,320,2.93566666,34.945609,-89.642927
6742,Holiday #3810,"I-94/US-52, EXIT 178 & SR-24",Clearwater,MN,453,3.22066666,28.338136,-71.416372
6744,FLYING J #550,US-2/US-52,Minot,ND,273,3.93566666,30.933898,-112.059482
6745,TIGER TRUCK STOP,"I-10, EXIT 139",Grosse Tete,LA,600,3.059,34.675416,-104.909597
6755,PETRO STOPPING CENTER #326,"I-40, EXIT 161 & SR-391",North Little Rock,AR,695,3.20733333,31.506794,-115.368397
6760,BETTY BEAVERS TRUCKSTOP,"I-87, EXIT 32",Lewis,NY,12,3.719,48.717049,-82.401851
6760,BETTY BEAVERS TRUCKSTOP,"I-87, EXIT 32",Lewis,NY,12,3.619,31.335827,-121.389741
6765,CIRCLE C TRAVEL PLAZA,"I-95, EXIT 68 & SR-61",Walterboro,SC,195,3.079,46.716892,-106.502985
6806,Onvo Travel Plaza,"I-78/US-22, EXIT 45 & SR-863",Kutztown,PA,90,3.32733333,29.579184,-115.196185
6810,TA RICHMOND,"I-95, EXIT 89 & SR-802",Ashland,VA,180,3.60566666,40.615212,-77.170486
6811,PUMP & PANTRY #24,US-6/CR-74,Hastings,NE,330,3.399,42.359528,-76.104642
6823,PETRO STOPPING CENTER #301,"I-10, EXIT 37",El Paso,TX,640,3.124,39.958073,-104.793763
6840,PETRO DEMING,"I-10, EXIT 68",Deming,NM,640,3.38566666,43.663071,-112.254533
6842,FLYNNS TRUCK PLAZA,"US-20, EXIT 11 & SR-140",Shrewsbury,MA,175,3.61566666,38.298789,-112.118157
6845,NEBRASKALAND TIRE SHOP,"I-80, EXIT 237 & US-283",Lexington,NE,330,2.999,47.187969,-108.608523
6850,BROKEN WHEEL TRUCK STOP,"I-25, EXIT 135",Douglas,WY,790,3.759,34.649385,-114.472692
6857,TA SPARKS TRAVEL CENTER,"I-80, EXIT 19 & SR-659",Sparks,NV,966,3.899,29.634375,-102.165901
6859,PRIME STOP,US-81,Norfolk,NE,470,3.229,40.837481,-115.38589
6864,JJS TRUCK STOP,"I-30, EXIT 106",Malvern,AR,695,3.31566666,27.394063,-71.793102
6869,TA WHEELING TRAVEL CENTER,"I-70, EXIT 11 & CR-41",Valley Grove,WV,165,3.529,25.657998,-111.998186
6883,PILOT TRAVEL CENTERS #517,US- 22 & SR-322,Duncannon,PA,70,4.199,39.016705,-74.541363
6885,GO MART FOOD STORE #31,"I-77, EXIT 95 & SR-61",Charleston,WV,44,3.499,48.097659,-74.623386
6886,PWI #535,"I-70, EXIT 47",Palisade,CO,800,3.379,40.127463,-77.679033
6897,Speedee Mart #2890,US-20 & US-83,Valentine,NE,475,3.329,40.006178,-114.335023
6901,PRIME STOP,US-275,Wisner,NE,470,3.259,32.328194,-101.27536
6915,FLITE LINE SUNOCO,"I-95, EXIT 3",Portsmouth,NH,34,3.69566666,33.872063,-119.86805
6927,TORCH 85 TRUCK PLAZA,"I-85, EXIT 42",Tuskegee,AL,720,3.27233333,45.470864,-101.663398
6944,CROSSROADS TRUCK STOP,"I-82, EXIT 1 & US-730",Umatilla,OR,982,3.239,38.914874,-71.905678
6948,PILOT #4563,"I-8I, EXIT 77",Harrisburg,PA,70,3.869,46.958771,-73.787254
6951,ARROWHEAD TRAVEL PLAZA,"I-84, EXIT 216 & SR 331,",Pendleton,OR,982,3.259,30.93583,-113.509202
6954,BOLLA MARKET #198,SR-17MAHWA,Mahwah,NJ,115,3.58566666,33.562192,-123.915841
6960,FLYING J TRAVEL PLAZA #761,"I-80 & US-189, EXIT 3",Evanston,WY,835,3.699,47.052246,-79.481439
6961,LITTLE AMERICA,"I-80, EXIT 358 & I-25, EXIT 9 & US-30",Cheyenne,WY,795,3.709,31.903296,-74.338809
6962,LITTLE AMERICA TRAVEL CENTER,"I-80, EXIT 68 & SR-374",Little America,WY,835,3.52566666,37.767117,-100.115417
6963,Atlantis Fresh Market #553,"I-84, EXIT 1",Montague,NJ,120,3.509,28.566926,-90.050901
6968,R STORE #4513,US-41,Fond Du Lac,WI,360,3.299,34.36928,-105.413859
6970,TA Twin City East Travel Center,I-94EXIT 4 & US-12,Hudson,WI,450,3.54733333,34.18421,-85.889007
6971,KWIK TRIP #1013,"I-41, EXIT 57 & SR-167",Richfield,WI,444,3.39066666,47.406888,-79.872263
6975,TRUCKERS INN STOP,"I-90/I-94, EXIT 132 & US-51",De Forest,WI,420,3.199,41.917491,-79.240743
6976,MOASIS TRUCK CENTER,US-41,Little Chute,WI,444,3.199,47.323665,-69.74777
6980,TA MADISON TRAVEL CENTER,"I-90/I-94/I-39, EXIT 132 & US-51",De Forest,WI,420,3.839,28.090946,-94.388717
6981,Kwik Trip #1197,"US-151, EXIT 26",Belmont,WI,335,3.564,41.474171,-117.865317
6984,TA HURRICANE TRAVEL CENTER,"I-64, EXIT 39 & SR-34",Hurricane,WV,255,3.63233333,37.12776,-90.978606
6986,LOVES TRAVEL STOP #448,"I-5, EXIT 136B, SR-509",Tacoma,WA,977,4.589,39.197643,-78.340968
6986,LOVES TRAVEL STOPS #448,"I-5, EXIT 136B, SR-509",Tacoma,WA,977,4.589,38.461093,-69.708431
6987,One9 #965,"I-90, EXIT 109 & US-97",Ellensburg,WA,977,3.859,30.249218,-113.865569
6987,One9 #965,"I-90, EXIT 109 & US-97",Ellensburg,WA,977,3.839,43.504621,-85.354647
6987,One9 #965,"I-90, EXIT 109 & US-97",Ellensburg,WA,977,3.899,34.900928,-122.868161
6992,FLYING J #1169,"I-5, EXIT 99",Tumwater,WA,977,4.599,25.278295,-69.64648
6994,FLYING J FRANCHISE #967,"I-90, EXIT 286",Spokane,WA,970,4.059,34.694622,-76.7326
6994,FLYING J FRANCHISE #967,"I-90, EXIT 286",Spokane,WA,970,3.999,25.222,-122.872535
6994,FLYING J FRANCHISE #967,"I-90, EXIT 286",Spokane,WA,970,4.029,43.999218,-68.828772
6994,FLYING J FRANCHISE #967,"I-90, EXIT 286",Spokane,WA,970,4.159,41.844925,-106.044277
6994,FLYING J FRANCHISE #967,"I-90, EXIT 286",Spokane,WA,970,3.929,47.979383,-78.296119
6999,SIMMONS TRAVEL CENTER,"I-85, EXIT 4 & SR-93/SR-903",Bracey,VA,180,3.099,32.378762,-77.48927
7003,TA ASHLAND TRAVEL CENTER,"I-95, EXIT 92 & SR-54",Ashland,VA,180,3.64233333,26.289934,-75.04665
7004,FRANKS TRUCKING CENTER,"I-264, EXIT 13B",Chesapeake,VA,130,3.449,27.551783,-114.599084
7005,PETRO STOPPING CENTER,"I-81 & I-64, EXIT 205",Raphine,VA,185,3.659,46.28131,-118.72253
7007,KUM & GO #0201,"I-80, EXIT 242",Coralville,IA,380,3.294,39.184602,-113.879814
7013,ERNIES TRUCK PLAZA,"I-15, EXIT 112",Beaver,UT,910,3.399,31.993057,-116.85561
7016,TA SALT LAKE CITY TRAVEL CENTER,"I-80, EXIT 99",Tooele,UT,835,3.769,43.146506,-101.324142
7018,FLYING J TRAVEL PLAZA #746,"I-15 & I-80 SR 201, EXIT 305",Salt Lake City,UT,835,3.73233333,29.600607,-68.372198
7023,TA AMARILLO WEST TRAVEL CENTER,"I-40, EXIT 74",Amarillo,TX,585,3.279,30.335664,-90.461354
7037,SAMS TRUCK STOP,"I-10, EXIT 138",Van Horn,TX,640,3.999,33.033803,-73.051525
7045,BUBBLE CITY TRUCK STOP,US-64,Farmington,NM,614,3.70566666,39.856037,-98.000667
7051,PILOT #887,US-84 & US-180,Snyder,TX,575,3.24566666,36.364445,-103.512328
7056,TA SWEETWATER TRAVEL CENTER,"I-20, EXIT 242",Sweetwater,TX,575,3.15233333,38.300202,-88.896058
7058,YESWAY #1125,"I-27, EXIT 1C",Lubbock,TX,700,2.969,43.064807,-84.700886
7059,TA BIG SPRING TRAVEL CENTER,"I-20, EXIT 177 & US-87",Big Spring,TX,612,3.699,39.275311,-96.765473
7064,SPEEDWAY #9804,"I-10, EXIT 25",El Paso,TX,640,3.41566666,47.252161,-115.850814
7066,REFUEL #328,"I-35,EXIT 204",San Marcos,TX,595,2.999,48.976763,-95.768266
7072,TA ANTIOCH TRAVEL CENTER,"I-24, EXIT 62",Antioch,TN,460,3.50566666,31.106577,-69.483707
